No.,storeNumber,countryCode,ownershipTypeCode,latitude,longitude,address,city,countrySubdivisionCode,postalCode,windowsTimeZoneId,GMT,GMT_region,Mon_open,Mon_close,Tue_open,Tue_close,Wed_open,Wed_close,Thu_open,Thu_close,Fri_open,Fri_close,Sat_open,Sat_close,Sun_open,Sun_close
7535,74306-78900,US,LS,40.079099,-104.802889,1300 Dexter St,fort lupton,CO,806211501,Mountain Standard Time,GMT-07:00,America/Denver,06:00,20:00,06:00,20:00,06:00,20:00,06:00,20:00,06:00,20:00,06:00,20:00,06:00,20:00
7536,14436-114804,US,CO,43.479563,-83.968724,2685 Tittabawassee,saginaw,MI,486048217,Eastern Standard Time,GMT-05:00,America/Detroit,05:30,21:00,05:30,21:00,05:30,21:00,05:30,21:00,05:30,22:00,05:30,22:00,05:30,21:00
7537,55799-183824,US,LS,43.483322,-83.970879,2772 Tittabawassee Rd,saginaw,MI,48604,Eastern Standard Time,GMT-05:00,America/Detroit,08:00,21:00,08:00,21:00,08:00,21:00,08:00,21:00,08:00,21:00,08:00,21:00,08:00,20:00
7538,78052-108426,US,LS,43.51302,-83.959972,7400 Bay Rd,saginaw,MI,486049733,Eastern Standard Time,GMT-05:00,America/Detroit,07:30,19:30,07:30,19:30,07:30,19:30,07:30,19:30,07:30,19:30,Closed,Closed,12:00,18:00
7539,51497-277347,US,CO,43.43629,-84.013049,4961 State Street|Suite 100,saginaw,MI,486033892,Eastern Standard Time,GMT-05:00,America/Detroit,05:30,21:00,05:30,21:00,05:30,21:00,05:30,21:00,05:30,21:00,06:00,21:00,06:00,21:00
7540,23156-222525,US,CO,43.624498,-83.893587,4107 Wilder Rd|#2,bay city,MI,487062240,Eastern Standard Time,GMT-05:00,America/Detroit,06:00,21:30,06:00,21:30,06:00,21:30,06:00,21:30,06:00,21:30,06:00,21:30,06:00,21:30
7541,2740-87803,US,CO,43.250475,-83.782424,8615 Main Street,birch run,MI,484158379,Eastern Standard Time,GMT-05:00,America/Detroit,05:30,21:00,07:00,15:00,07:00,15:00,07:00,15:00,05:30,21:00,05:30,21:00,05:30,21:00
7542,10033-99146,US,CO,43.662671,-84.247964,7201 Eastman Avenue|Eastman Shopping Center,midland,MI,486427402,Eastern Standard Time,GMT-05:00,America/Detroit,05:30,21:30,05:30,21:30,05:30,21:30,05:30,21:30,05:30,21:30,05:30,21:30,06:00,20:30
7543,60133-294357,US,CO,42.998571,-84.121153,2275 E. Main St.,owosso,MI,48867,Eastern Standard Time,GMT-05:00,America/Detroit,06:00,21:00,06:00,21:00,06:00,21:00,06:00,21:00,06:00,21:00,06:00,21:00,06:00,21:00
7544,29348-252925,US,LS,43.379007,-84.666402,328 W Superior St,alma,MI,48801,Eastern Standard Time,GMT-05:00,America/Detroit,06:30,19:00,06:30,19:00,06:30,19:00,06:30,19:00,06:30,19:00,08:00,17:00,08:00,17:00
7545,8874-95315,US,CO,42.98839,-83.740506,3243 Miller Rd,flint,MI,485071000,Eastern Standard Time,GMT-05:00,America/Detroit,05:30,17:00,05:30,17:00,05:30,17:00,05:30,17:00,05:30,17:00,06:00,17:00,06:30,17:00
7546,9650-97875,US,CO,43.018372,-83.635576,3822 E. Court Street|Pro Clean Center,flint,MI,485064110,Eastern Standard Time,GMT-05:00,America/Detroit,05:30,16:00,05:30,16:00,05:30,16:00,05:30,16:00,05:30,16:00,06:00,16:00,06:00,16:00
7547,3927-135287,US,LS,43.035386,-83.537722,8503 Davison Rd,davison,MI,484232116,Eastern Standard Time,GMT-05:00,America/Detroit,06:00,19:00,06:00,19:00,06:00,19:00,06:00,19:00,06:00,19:00,06:00,19:00,06:00,19:00
7548,11728-104638,US,CO,43.611932,-84.735368,5655 East Pickard St,mt. pleasant,MI,488585034,Eastern Standard Time,GMT-05:00,America/Detroit,05:30,18:00,05:30,18:00,05:30,18:00,05:30,18:00,05:30,16:00,06:00,16:00,06:00,16:00
7549,51498-277377,US,CO,42.94372,-83.690316,1054 E Hill Road,grand blanc,MI,484394803,Eastern Standard Time,GMT-05:00,America/Detroit,05:30,22:00,05:30,22:00,05:30,22:00,05:30,22:00,05:30,22:00,06:00,22:00,06:00,22:00
7550,76517-99394,US,LS,43.57653,-84.76553,4097 E Blue Grass Rd,mt. pleasant,MI,488587997,Eastern Standard Time,GMT-05:00,America/Detroit,08:00,21:00,08:00,21:00,08:00,21:00,08:00,21:00,08:00,21:00,08:00,21:00,08:00,20:00
7551,16526-147369,US,LS,43.590468,-84.775732,103 E Preston,mt. pleasant,MI,488583854,Eastern Standard Time,GMT-05:00,America/Detroit,07:30,20:00,07:30,20:00,07:30,20:00,07:30,20:00,07:30,20:00,10:00,18:00,12:00,18:00
7552,2722-84411,US,CO,42.928564,-83.630915,11353 South Saginaw St,grand blanc,MI,484391268,Eastern Standard Time,GMT-05:00,America/Detroit,05:00,20:00,05:00,20:00,05:00,20:00,05:00,20:00,05:00,20:00,05:00,20:00,05:00,20:00
7553,14453-122004,US,CO,43.043106,-83.321444,1221 Demille Street,lapeer,MI,484463392,Eastern Standard Time,GMT-05:00,America/Detroit,05:00,21:00,05:00,21:00,05:00,21:00,05:00,21:00,05:00,21:00,06:00,21:00,06:00,21:00
7554,26921-243047,US,LS,42.814367,-83.705932,1390 N Leroy St,fenton,MI,48340,Eastern Standard Time,GMT-05:00,America/Detroit,06:00,19:00,06:00,19:00,06:00,19:00,06:00,19:00,06:00,19:00,06:00,19:00,06:00,19:00
7555,3926-135290,US,LS,42.793119,-83.737987,18005 Silver Pkwy,fenton,MI,484303421,Eastern Standard Time,GMT-05:00,America/Detroit,06:00,19:00,06:00,19:00,06:00,19:00,06:00,19:00,06:00,19:00,06:00,19:00,06:00,19:00
7556,52284-277381,US,CO,42.789393,-83.74205,3401 Owen Rd Ste 100,fenton,MI,484309688,Eastern Standard Time,GMT-05:00,America/Detroit,06:00,19:00,06:00,19:00,06:00,19:00,06:00,19:00,06:00,20:00,06:00,20:00,06:00,19:00
7557,76583-98139,US,LS,42.786934,-83.737973,3255 Owen Rd,fenton,MI,484301755,Eastern Standard Time,GMT-05:00,America/Detroit,08:00,21:00,08:00,21:00,08:00,21:00,08:00,21:00,08:00,21:00,08:00,21:00,08:00,21:00
7558,11667-104566,US,CO,47.531954,-122.19411,1785 44th Avenue,renton,WA,980569000,Pacific Standard Time,GMT-08:00,America/Los_Angeles,05:00,18:00,05:00,18:00,05:00,18:00,05:00,18:00,05:00,18:00,05:00,18:00,05:00,18:00
7559,79348-102110,US,LS,47.541036,-122.225855,8421 S.E. 68th St,mercer island,WA,980405235,Pacific Standard Time,GMT-08:00,America/Los_Angeles,06:00,19:00,06:00,19:00,06:00,19:00,06:00,19:00,06:00,19:00,06:00,19:00,06:00,19:00
7560,3310-18667,US,CO,47.54163,-122.225776,8415 SE 68th Street|Suite 100,mercer island,WA,980405248,Pacific Standard Time,GMT-08:00,America/Los_Angeles,05:30,18:00,05:30,18:00,05:30,18:00,05:30,18:00,05:30,18:00,05:30,18:00,05:30,18:00
7561,76859-111805,US,LS,47.496482,-122.200358,1215 Landing Way,renton,WA,980575521,Pacific Standard Time,GMT-08:00,America/Los_Angeles,07:00,20:00,07:00,20:00,07:00,20:00,07:00,20:00,07:00,20:00,07:00,20:00,07:00,20:00
7562,48922-264104,US,CO,47.484036,-122.216994,68 Rainier Ave S,renton,WA,980572042,Pacific Standard Time,GMT-08:00,America/Los_Angeles,Null,Null,Null,Null,Null,Null,Null,Null,Null,Null,Null,Null,Null,Null
7563,74349-84924,US,LS,47.520752,-122.268209,9262 Rainier Ave S,seattle,WA,981185570,Pacific Standard Time,GMT-08:00,America/Los_Angeles,06:00,19:00,06:00,19:00,06:00,19:00,06:00,19:00,06:00,19:00,06:00,19:00,06:00,19:00
7564,74405-52023,US,LS,47.479965,-122.214765,200 S 3rd St,renton,WA,980572031,Pacific Standard Time,GMT-08:00,America/Los_Angeles,05:30,19:00,05:30,19:00,05:30,19:00,05:30,19:00,05:30,19:00,05:30,19:00,05:30,19:00
7565,25971-96225,US,LS,47.477448,-122.21848,365 Renton Center Way SW,renton,WA,980572324,Pacific Standard Time,GMT-08:00,America/Los_Angeles,05:00,19:00,05:00,19:00,05:00,19:00,05:00,19:00,05:00,19:00,05:00,19:00,05:00,19:00
7566,79207-97617,US,LS,47.585106,-122.232881,7823 SE 28th,mercer island,WA,980402902,Pacific Standard Time,GMT-08:00,America/Los_Angeles,06:00,19:00,06:00,19:00,06:00,19:00,06:00,19:00,06:00,19:00,06:00,19:00,06:00,19:00
7567,3401-190904,US,CO,47.474126,-122.216124,641 Rainier Ave S,renton,WA,980572410,Pacific Standard Time,GMT-08:00,America/Los_Angeles,04:00,20:00,04:00,20:00,04:00,20:00,04:00,20:00,04:00,20:00,04:30,20:00,06:00,20:00
7568,12950-155384,US,LS,47.537471,-122.283071,3900 S Othello St,seattle,WA,981183543,Pacific Standard Time,GMT-08:00,America/Los_Angeles,05:00,20:00,05:00,20:00,05:00,20:00,05:00,20:00,05:00,20:00,05:00,20:00,05:00,20:00
7569,3330-26367,US,CO,47.586396,-122.235256,7695 SE 27th Street,mercer island,WA,980402804,Pacific Standard Time,GMT-08:00,America/Los_Angeles,05:30,17:00,05:30,17:00,05:30,17:00,05:30,17:00,05:30,17:00,05:30,16:00,05:30,17:00
7570,374-88,US,CO,47.471484,-122.211462,601 S. Grady Way|#E,renton,WA,980573229,Pacific Standard Time,GMT-08:00,America/Los_Angeles,04:30,18:00,04:30,18:00,04:30,18:00,04:30,18:00,04:30,18:00,05:00,18:00,05:00,18:00
7571,3393-76582,US,CO,47.587011,-122.236899,7620 SE 27th St,mercer island,WA,980402805,Pacific Standard Time,GMT-08:00,America/Los_Angeles,04:30,20:00,04:30,20:00,04:30,20:00,04:30,20:00,04:30,20:00,05:00,20:00,05:30,20:00
7572,11158-99264,US,CO,47.545883,-122.285101,6310 Martin Luther King Jr. Way S,seattle,WA,98118,Pacific Standard Time,GMT-08:00,America/Los_Angeles,05:00,17:00,05:00,17:00,05:00,17:00,05:00,17:00,05:00,17:00,05:30,17:00,05:30,17:00
7573,9319-88089,US,CO,47.485774,-122.272817,13038 Interurban Ave,tukwila,WA,981683313,Pacific Standard Time,GMT-08:00,America/Los_Angeles,04:00,00:00,04:00,00:00,04:00,00:00,04:00,00:00,04:00,00:00,04:00,00:00,04:00,00:00
7574,24284-236926,US,LS,47.569072,-122.288336,3820 Rainier Avenue South,seattle,WA,98118,Pacific Standard Time,GMT-08:00,America/Los_Angeles,05:00,20:00,05:00,20:00,05:00,20:00,05:00,20:00,05:00,20:00,05:00,20:00,05:00,20:00
7575,29220-253044,US,CO,47.464983,-122.137359,15221 SE Renton Maple Valley Rd,renton,WA,98058,Pacific Standard Time,GMT-08:00,America/Los_Angeles,04:30,18:30,04:00,18:30,04:00,18:30,04:00,18:30,04:00,19:30,05:00,19:00,05:00,19:00
7576,3278-4859,US,CO,47.610608,-122.200706,42 Bellevue Way NE,bellevue,WA,980045916,Pacific Standard Time,GMT-08:00,America/Los_Angeles,05:30,12:00,05:30,12:00,05:30,12:00,05:30,12:00,05:30,12:00,06:00,12:00,06:00,12:00
7577,79751-101070,US,LS,47.613097,-122.201309,300 Bellevue Way NE,bellevue,WA,980045718,Pacific Standard Time,GMT-08:00,America/Los_Angeles,06:00,19:00,06:00,19:00,06:00,19:00,06:00,19:00,06:00,19:00,06:00,19:00,06:00,19:00
7578,3313-9258,US,CO,47.615946,-122.196535,601 108th Avenue NE,bellevue,WA,980044383,Pacific Standard Time,GMT-08:00,America/Los_Angeles,05:00,17:00,05:00,15:00,05:00,17:00,05:00,17:00,05:00,17:00,Closed,Closed,Closed,Closed
7579,5191-147248,US,CO,47.615859,-122.20372,226 Bellevue Square,bellevue,WA,980045020,Pacific Standard Time,GMT-08:00,America/Los_Angeles,07:00,21:30,07:00,21:30,07:00,21:30,07:00,21:30,07:00,21:30,07:30,21:30,07:30,20:00
7580,13009-108563,US,CO,47.617076,-122.20192,545 BELLEVUE SQUARE,bellevue,WA,980045031,Pacific Standard Time,GMT-08:00,America/Los_Angeles,06:00,21:00,06:00,21:00,06:00,21:00,06:00,21:00,06:00,22:00,06:00,22:00,06:00,21:00
7581,3364-63160,US,CO,47.458797,-122.258994,506 Southcenter Blvd.|Southcenter Mall,tukwila,WA,981882813,Pacific Standard Time,GMT-08:00,America/Los_Angeles,09:00,21:00,09:00,21:00,08:30,21:00,08:30,21:00,08:30,21:00,08:30,21:00,09:00,19:00
7582,79347-100350,US,LS,47.579087,-122.299771,2707 Rainier Avenue South,seattle,WA,981445332,Pacific Standard Time,GMT-08:00,America/Los_Angeles,06:00,19:00,06:00,19:00,06:00,19:00,06:00,19:00,06:00,19:00,06:00,19:00,06:00,19:00
7583,75814-97618,US,LS,47.617587,-122.193144,11010 NE 8th St,bellevue,WA,980044408,Pacific Standard Time,GMT-08:00,America/Los_Angeles,06:00,14:00,06:00,14:00,06:00,14:00,06:00,14:00,06:00,14:00,07:00,14:00,07:00,14:00
7584,303-69,US,CO,47.617728,-122.203957,10214 NE 8th,bellevue,WA,980044217,Pacific Standard Time,GMT-08:00,America/Los_Angeles,05:30,20:00,05:30,20:00,05:30,20:00,05:30,20:00,05:30,20:00,05:30,20:00,05:30,20:00
7585,79276-100349,US,LS,47.618394,-122.204945,10116 NE 8th St,bellevue,WA,980044148,Pacific Standard Time,GMT-08:00,America/Los_Angeles,05:00,19:00,05:00,19:00,05:00,19:00,05:00,19:00,05:00,19:00,05:00,19:00,05:00,19:00
7586,331-276,US,CO,47.455691,-122.256563,333 Strander Blvd,tukwila,WA,981882916,Pacific Standard Time,GMT-08:00,America/Los_Angeles,05:00,20:00,05:00,20:00,05:00,20:00,05:00,20:00,05:00,20:00,06:00,20:00,06:00,20:00
7587,74176-30379,US,LS,47.447678,-122.152629,17230 140th SE,renton,WA,980587014,Pacific Standard Time,GMT-08:00,America/Los_Angeles,05:30,19:00,05:30,19:00,05:30,19:00,05:30,19:00,05:30,19:00,05:30,19:00,05:30,19:00
7588,48902-263948,US,LS,47.443096,-122.198853,17801 108TH Avenue SE,renton,WA,98055,Pacific Standard Time,GMT-08:00,America/Los_Angeles,07:00,16:00,07:00,16:00,07:00,16:00,07:00,16:00,07:00,16:00,06:00,18:00,06:00,18:00
7589,13907-110297,US,CO,27.685051,-97.381929,5630 Saratoga Blvd|102,corpus christi,TX,784144101,Central Standard Time,GMT-06:00,America/Chicago,05:00,22:30,05:00,22:30,05:00,22:30,05:00,22:30,05:00,23:00,05:30,22:30,05:30,22:30
7590,24577-235306,US,LS,27.706218,-97.373975,5425 S Padre Island Dr Ste 125,corpus christi,TX,78411,Central Standard Time,GMT-06:00,America/Chicago,08:00,21:00,08:00,21:00,08:00,21:00,08:00,21:00,08:00,21:00,08:00,21:00,08:00,21:00
7591,6720-75542,US,CO,27.706896,-97.370019,5601 South Padre Island Drive,corpus christi,TX,784123930,Central Standard Time,GMT-06:00,America/Chicago,05:00,23:00,05:00,23:00,05:00,23:00,05:00,23:00,05:00,23:00,05:00,23:00,05:00,23:00
7592,29565-254292,US,CO,27.699401,-97.411066,4022 Saratoga Blvd.,corpus christi,TX,784132034,Central Standard Time,GMT-06:00,America/Chicago,05:00,23:00,05:00,23:00,05:00,23:00,05:00,23:00,05:00,23:00,06:00,22:30,06:00,22:30
7593,11943-105899,US,CO,27.740586,-97.388051,3738 Staples,corpus christi,TX,784112346,Central Standard Time,GMT-06:00,America/Chicago,05:30,22:00,05:00,22:30,05:00,22:30,05:00,22:30,05:00,22:30,05:00,22:30,05:00,22:30
7594,16661-110945,US,LS,27.713147,-97.324361,6300 Ocean Drive.,corpus christi,TX,78412,Central Standard Time,GMT-06:00,America/Chicago,08:00,14:00,08:00,14:00,08:00,14:00,08:00,14:00,08:00,14:00,08:00,14:00,08:00,14:00
7595,50488-248915,US,CO,27.629201,-97.225548,14002 South Padre Island Drive,corpus christi,TX,78418,Central Standard Time,GMT-06:00,America/Chicago,05:00,22:00,05:00,22:00,05:00,22:00,05:00,22:00,05:00,22:00,05:00,22:00,05:00,22:00
7596,10414-100491,US,CO,27.883446,-97.318794,1304 Wildcat Drive,portland,TX,783742812,Central Standard Time,GMT-06:00,America/Chicago,05:00,21:30,05:00,21:30,05:00,21:30,05:00,21:30,05:00,21:30,05:00,21:30,05:00,21:30
7597,29568-254296,US,CO,27.856712,-97.645613,14213 Northwest Blvd,calallen,TX,784105505,Central Standard Time,GMT-06:00,America/Chicago,05:30,22:00,05:30,22:00,05:30,22:00,05:30,22:00,05:30,23:00,05:30,23:00,05:30,22:30
7598,65433-298788,US,CO,27.923972,-97.17773,140 South FM 1069,aransas pass,TX,78336,Central Standard Time,GMT-06:00,America/Chicago,05:00,21:30,05:00,21:30,05:00,21:30,05:00,21:30,05:00,21:30,05:00,21:30,05:00,21:30
7599,60637-293006,US,CO,27.492628,-97.844925,2518 S US HWY 77,kingsville,TX,78363,Central Standard Time,GMT-06:00,America/Chicago,05:30,23:00,05:30,23:00,05:30,23:00,05:30,23:00,05:30,23:00,05:30,23:00,05:30,23:00
7600,7071-151265,US,LS,27.523541,-97.881786,1050 Santa Gertrudis Blvd,kingsville,TX,783634701,Central Standard Time,GMT-06:00,America/Chicago,07:00,19:00,07:00,19:00,07:00,19:00,07:00,19:00,07:00,17:00,09:00,14:00,Closed,Closed
7601,72552-121747,US,LS,34.248717,-85.1635,1476 Turner McCall Blvd NE,rome,GA,30161,Eastern Standard Time,GMT-05:00,America/New_York,06:00,20:00,06:00,20:00,06:00,20:00,06:00,20:00,06:00,20:00,06:00,20:00,06:00,20:00
7602,11487-104441,US,CO,34.261319,-85.169629,795 Turner McCall Blvd,rome,GA,301612719,Eastern Standard Time,GMT-05:00,America/New_York,05:00,23:00,05:00,23:00,05:00,23:00,05:00,23:00,05:00,23:30,05:00,23:30,05:00,23:00
7603,65852-296732,US,CO,34.271995,-85.232244,2300 Shorter Ave NW,rome,GA,30165,Eastern Standard Time,GMT-05:00,America/New_York,05:00,21:00,05:00,21:00,05:00,21:00,05:00,21:00,05:00,21:00,05:00,21:00,05:00,21:00
7604,13430-107460,US,CO,34.473497,-84.925244,605 Highway 53,calhoun,GA,307013919,Eastern Standard Time,GMT-05:00,America/New_York,05:30,21:00,05:30,21:00,05:30,21:00,05:30,21:00,05:30,21:00,05:30,21:00,05:30,21:00
7605,60962-294168,US,LS,34.502235,-84.918158,225 Lovers Lane Rd,calhoun,GA,30701,Eastern Standard Time,GMT-05:00,America/New_York,06:00,21:00,06:00,21:00,06:00,21:00,06:00,21:00,06:00,21:00,06:00,21:00,06:00,21:00
7606,61799-295442,US,LS,33.720764,-85.145483,2865 Music Mill Rd,bremen,GA,30110,Eastern Standard Time,GMT-05:00,America/New_York,07:00,21:00,07:00,21:00,07:00,21:00,07:00,21:00,07:00,21:00,07:00,21:00,07:00,21:00
7607,79479-99189,US,LS,34.75888,-84.994474,1365 W Walnut Ave,dalton,GA,307203857,Eastern Standard Time,GMT-05:00,America/New_York,06:00,20:00,06:00,18:00,06:00,18:00,06:00,18:00,06:00,18:00,08:00,20:00,06:00,20:00
7608,13407-106853,US,CO,34.797001,-84.96268,1305 N Glenwood Ave,dalton,GA,307212605,Eastern Standard Time,GMT-05:00,America/New_York,05:00,21:00,05:00,21:00,05:00,21:00,05:00,21:00,05:00,21:00,05:30,21:00,05:30,21:00
7609,51704-278726,US,LS,34.782735,-84.791968,962 GI Maddox Pkwy.,chatsworth,GA,30705,Eastern Standard Time,GMT-05:00,America/New_York,07:00,21:00,07:00,21:00,07:00,21:00,07:00,21:00,07:00,21:00,07:00,21:00,07:00,21:00
7610,79743-135384,US,LS,38.986509,-119.943637,212 Elk Point Dr,zephyr cove,NV,89448,Pacific Standard Time,GMT-08:00,America/Los_Angeles,06:00,18:00,06:00,18:00,06:00,18:00,06:00,18:00,06:00,18:00,06:00,18:00,06:00,18:00
7611,75243-92380,US,LS,38.959321,-119.940103,15 US-50,stateline,NV,89449,Pacific Standard Time,GMT-08:00,America/Los_Angeles,06:00,23:00,06:00,23:00,06:00,23:00,06:00,23:00,06:00,23:00,06:00,23:00,06:00,23:00
7612,21756-215164,US,CO,38.95594,-119.942326,1001 Heavenly Village Way,south lake tahoe,CA,961507068,Pacific Standard Time,GMT-08:00,America/Los_Angeles,06:00,19:00,06:00,19:00,06:00,19:00,06:00,19:00,06:00,21:00,06:00,21:00,06:00,19:00
7613,6991-86062,US,CO,38.954866,-119.944525,4000 S LAKE TAHOE BLVD|24|Town Center at Lake Tahoe,south lake tahoe,CA,961507071,Pacific Standard Time,GMT-08:00,America/Los_Angeles,05:00,22:00,05:00,22:00,05:00,22:00,05:00,22:00,05:00,22:00,05:00,22:00,05:00,22:00
7614,74189-35461,US,LS,38.945286,-119.967193,1020 Johnson Dr.,south lake tahoe,CA,961508214,Pacific Standard Time,GMT-08:00,America/Los_Angeles,04:30,20:30,04:30,20:30,04:30,20:30,04:30,20:30,04:30,20:30,04:30,20:30,04:30,20:30
7615,5478-1134,US,CO,38.911311,-120.004029,1064 Emerald Bay Road,south lake tahoe,CA,961506200,Pacific Standard Time,GMT-08:00,America/Los_Angeles,05:00,20:00,05:00,20:00,05:00,20:00,05:00,20:00,05:00,20:00,05:00,20:00,05:00,20:00
7616,10164-99684,US,CO,38.961281,-119.77977,1734 US Hwy 395 N|Ironwood Center,minden,NV,894234700,Pacific Standard Time,GMT-08:00,America/Los_Angeles,05:00,18:00,05:00,18:00,05:00,18:00,05:00,18:00,05:00,18:00,05:30,18:00,05:30,18:00
7617,6732-75001,US,CO,38.935901,-119.738754,1327 US Highway 395 North|A|Carson Valley Fair,gardnerville,NV,894105379,Pacific Standard Time,GMT-08:00,America/Los_Angeles,05:00,18:00,05:00,18:00,05:00,18:00,05:00,18:00,05:00,18:00,05:00,18:00,05:00,18:00
7618,74344-83285,US,LS,39.23899,-120.03595,7815 N Lake Blvd,kings beach,CA,96143,Pacific Standard Time,GMT-08:00,America/Los_Angeles,05:30,18:00,05:30,18:00,05:30,18:00,05:30,18:00,05:30,18:00,05:30,18:00,05:30,18:00
7619,75533-53979,US,LS,39.196911,-120.23502,1985 Squaw Valley Rd|Ste.21,olympic valley,CA,96146,Pacific Standard Time,GMT-08:00,America/Los_Angeles,07:30,13:00,07:30,13:00,07:30,13:00,07:30,13:00,07:30,15:30,07:30,15:30,07:30,15:30
7620,75864-98266,US,LS,39.277962,-120.12019,100 Northstar Dr,truckee,CA,961614203,Pacific Standard Time,GMT-08:00,America/Los_Angeles,07:00,14:00,07:00,14:00,07:00,14:00,07:00,14:00,07:00,14:00,07:00,14:00,07:00,14:00
7621,52182-278485,US,CO,39.31897,-120.207728,11355 Deerfield Drive,truckee,CA,961610505,Pacific Standard Time,GMT-08:00,America/Los_Angeles,05:00,19:00,05:00,19:00,05:00,19:00,05:00,19:00,05:00,19:00,06:00,19:00,06:00,19:00
7622,79651-115127,US,LS,39.326825,-120.206583,11290 Donner Pass Rd,truckee,CA,961614808,Pacific Standard Time,GMT-08:00,America/Los_Angeles,06:00,19:00,06:00,19:00,06:00,19:00,06:00,19:00,06:00,19:00,06:00,19:00,06:00,19:00
7623,79728-132986,US,LS,38.762347,-120.576924,6498 Pony Trail Express,pollock pines,CA,957269604,Pacific Standard Time,GMT-08:00,America/Los_Angeles,05:00,19:00,05:00,19:00,05:00,19:00,05:00,19:00,05:00,19:00,05:00,19:00,05:00,19:00
7624,73920-94742,US,LS,40.382665,-74.309445,3500 US-9,old bridge,NJ,88572767,Eastern Standard Time,GMT-05:00,America/New_York,06:00,19:00,06:00,19:00,06:00,19:00,06:00,19:00,06:00,19:00,06:00,19:00,06:00,19:00
7625,7843-81104,US,CO,40.354109,-74.3078,67 Route 9 South,morganville,NJ,77511586,Eastern Standard Time,GMT-05:00,America/New_York,06:00,20:00,06:00,19:00,06:00,19:00,06:00,19:00,06:00,19:00,06:00,19:00,07:00,19:00
7626,7438-2865,US,CO,40.40914,-74.234266,265 Main Street|Main Street Village,matawan,NJ,77473222,Eastern Standard Time,GMT-05:00,America/New_York,06:00,18:00,06:00,18:00,06:00,18:00,06:00,14:00,06:00,18:00,06:00,18:00,06:00,18:00
7627,47413-247604,US,CO,40.398053,-74.226169,1109 Route 34,matawan,NJ,77472166,Eastern Standard Time,GMT-05:00,America/New_York,05:00,20:00,05:00,20:00,05:00,20:00,05:00,20:00,05:00,20:00,05:00,20:00,05:00,20:00
7628,24041-235005,US,CO,40.429114,-74.384668,50 Racetrack Rd|Suite A,east brunswick,NJ,88163767,Eastern Standard Time,GMT-05:00,America/New_York,05:30,20:00,05:30,20:00,05:30,20:00,05:30,20:00,05:30,20:00,05:30,20:00,05:30,20:00
7629,7753-9873,US,CO,40.308548,-74.30362,310 Route 9 North,manalapan,NJ,7763,Eastern Standard Time,GMT-05:00,America/New_York,06:00,21:00,06:00,21:00,06:00,21:00,06:00,21:00,06:00,21:00,06:00,21:00,06:00,21:00
7630,20213-204164,US,CO,40.462055,-74.29515,957 Route 9 N,south amboy,NJ,88793302,Eastern Standard Time,GMT-05:00,America/New_York,05:00,12:00,05:00,21:00,05:00,21:00,05:00,21:00,05:00,21:00,06:00,21:00,06:00,21:00
7631,75556-49639,US,LS,40.466472,-74.289418,Garden State Parkway Mile Post 124|PO Box 307,south amboy,NJ,88790307,Eastern Standard Time,GMT-05:00,America/New_York,06:00,19:00,06:00,19:00,06:00,19:00,06:00,21:00,06:00,21:00,06:00,21:00,06:00,21:00
7632,52266-141947,US,LS,40.291289,-74.301868,55 US Hwy 9,manalapan,NJ,7726,Eastern Standard Time,GMT-05:00,America/New_York,08:00,21:00,08:00,21:00,08:00,21:00,08:00,21:00,08:00,21:00,08:00,21:00,08:00,21:00
7633,9958-97328,US,CO,40.456424,-74.400347,300 Route 18 North,east brunswick,NJ,88161912,Eastern Standard Time,GMT-05:00,America/New_York,06:00,20:00,06:00,20:00,06:00,20:00,06:00,20:00,06:00,20:00,06:00,20:00,06:00,20:00
7634,47371-257924,US,CO,40.421735,-74.186402,3201 RT 35,hazlet,NJ,77301539,Eastern Standard Time,GMT-05:00,America/New_York,05:30,19:00,05:30,19:00,05:30,19:00,05:30,19:00,05:30,19:00,05:30,19:00,05:30,19:00
7635,52321-281345,US,LS,40.442068,-74.426261,400 Ryders Ln,milltown,NJ,8850,Eastern Standard Time,GMT-05:00,America/New_York,08:00,21:00,08:00,21:00,08:00,21:00,08:00,21:00,08:00,21:00,08:00,21:00,08:00,21:00
7636,72451-9973,US,LS,40.416656,-74.443789,"Milepost 78.7 NB, NJ Turnpike",milltown,NJ,8850,Eastern Standard Time,GMT-05:00,America/New_York,06:00,22:00,06:00,22:00,06:00,22:00,06:00,22:00,06:00,22:00,06:00,22:00,06:00,22:00
7637,79487-101833,US,LS,40.316067,-74.439653,1600 Perrineville Road,cranbury,NJ,8512,Eastern Standard Time,GMT-05:00,America/New_York,06:00,19:30,06:00,19:30,06:00,19:30,06:00,19:30,06:00,19:30,06:00,19:30,06:00,19:30
7638,14266-108195,US,CO,40.253401,-74.300191,3710 Route 9|Freehold Raceway Mall,freehold,NJ,77289809,Eastern Standard Time,GMT-05:00,America/New_York,09:00,21:00,09:00,21:00,09:00,21:00,09:00,21:00,09:00,21:00,09:00,21:00,10:00,19:00
7639,49768-271099,US,CO,40.487091,-74.415707,23 Route 1,new brunswick,NJ,8901,Eastern Standard Time,GMT-05:00,America/New_York,06:00,20:00,06:00,20:00,06:00,20:00,06:00,20:00,06:00,21:00,06:00,21:00,06:30,20:00
7640,49280-267505,US,LS,40.411811,-74.135135,2105 Route 35,middletown,NJ,7748,Eastern Standard Time,GMT-05:00,America/New_York,08:00,21:00,08:00,21:00,08:00,21:00,08:00,21:00,08:00,21:00,08:00,21:00,08:00,21:00
7641,7617-21884,US,CO,40.410774,-74.133356,2011 Route 35,middletown,NJ,77481830,Eastern Standard Time,GMT-05:00,America/New_York,06:00,17:00,06:00,17:00,06:00,17:00,06:00,17:00,06:00,17:00,06:00,17:00,06:00,17:00
7642,11363-103664,US,CO,40.461419,-74.458622,522 Shoppes Boulevard|Shoppes at North Brunswick,north brunswick,NJ,89022798,Eastern Standard Time,GMT-05:00,America/New_York,06:00,20:00,06:00,20:00,06:00,20:00,06:00,20:00,06:00,21:00,06:30,21:00,06:30,20:00
7643,25615-241998,US,CO,40.51632,-74.373183,939 US ROUTE 1,edison,NJ,88174849,Eastern Standard Time,GMT-05:00,America/New_York,05:00,19:00,05:00,19:00,05:00,19:00,05:00,19:00,05:00,19:00,05:00,19:00,05:00,19:00
7644,7758-59423,US,CO,40.240512,-74.305359,11 Village Center Drive,freehold,NJ,77282526,Eastern Standard Time,GMT-05:00,America/New_York,05:30,21:00,05:30,21:00,05:30,21:00,05:30,21:00,05:30,21:00,06:00,21:00,06:00,21:00
7645,19195-193084,US,CO,40.521636,-74.23554,106 Page Avenue|Richmond Valley Plaza,staten island,NY,103092617,Eastern Standard Time,GMT-05:00,America/New_York,06:00,20:00,06:00,20:00,06:00,20:00,06:00,20:00,06:00,20:00,06:00,20:00,06:00,20:00
7646,7292-1170,US,CO,40.496285,-74.443917,391 George Street|Kilmer Square,new brunswick,NJ,89012033,Eastern Standard Time,GMT-05:00,America/New_York,06:00,20:00,06:00,20:00,06:00,20:00,06:00,20:00,06:00,20:00,06:00,20:00,06:00,20:00
7647,50211-272268,US,LS,40.332071,-74.119047,619 Newman Springs Road,lincroft,NJ,7738,Eastern Standard Time,GMT-05:00,America/New_York,06:00,20:00,06:00,20:00,06:00,20:00,06:00,20:00,06:00,20:00,06:00,20:00,06:00,20:00
7648,53896-258613,US,LS,40.49557,-74.44988,One Robert Wood Johnson Place,new brunswick,NJ,8903,Eastern Standard Time,GMT-05:00,America/New_York,06:00,22:00,06:00,22:00,06:00,22:00,06:00,22:00,06:00,22:00,07:00,21:00,07:00,21:00
7649,76557-90426,US,LS,40.528278,-74.233312,2900 Veterans Rd W,staten island,NY,103092502,Eastern Standard Time,GMT-05:00,America/New_York,08:00,21:00,08:00,21:00,08:00,21:00,08:00,21:00,07:00,21:00,08:00,21:00,08:00,21:00
7650,51859-279429,US,CO,40.499268,-74.448231,38 College Ave,new brunswick,NJ,89018540,Eastern Standard Time,GMT-05:00,America/New_York,06:30,20:00,06:30,20:00,06:30,20:00,06:30,20:00,06:30,20:00,07:30,19:00,07:30,19:00
7651,23510-214966,US,LS,40.43822,-74.504114,101 Grand Ave,north brunswick,NJ,8902,Eastern Standard Time,GMT-05:00,America/New_York,08:00,21:00,08:00,21:00,08:00,21:00,08:00,21:00,08:00,21:00,08:00,21:00,08:00,21:00
7652,18033-166705,US,LS,40.544593,-74.334184,275 Menlo Park Mall,edison,NJ,88375402,Eastern Standard Time,GMT-05:00,America/New_York,10:00,21:30,10:00,21:30,10:00,21:30,10:00,21:30,10:00,22:00,10:00,22:00,11:00,20:00
7653,55621-288800,US,CO,40.526772,-74.201538,5801 Amboy Rd,staten island,NY,103093136,Eastern Standard Time,GMT-05:00,America/New_York,06:00,20:00,06:00,20:00,06:00,20:00,06:00,20:00,06:00,20:00,06:00,20:00,06:00,20:00
7654,25917-242784,US,CO,40.421079,-74.528528,3804 Rt. 1 North,south brunswick,NJ,8852,Eastern Standard Time,GMT-05:00,America/New_York,05:00,21:00,05:00,21:00,05:00,21:00,05:00,21:00,05:00,21:00,06:00,21:00,06:00,21:00
7655,19466-179945,US,LS,40.525039,-74.439577,105 Joyce Kilmer Ave|#30,piscataway,NJ,8854,Eastern Standard Time,GMT-05:00,America/New_York,07:00,17:00,07:00,17:00,07:00,17:00,07:00,17:00,07:00,17:00,Closed,Closed,Closed,Closed
7656,67774-302521,US,LS,40.557041,-74.300645,250 Woodbridge Center,woodbridge township,NJ,7095,Eastern Standard Time,GMT-05:00,America/New_York,11:00,20:00,11:00,20:00,11:00,20:00,11:00,20:00,10:00,21:00,10:00,21:00,11:00,19:00
7657,7767-252022,US,CO,40.557034,-74.343188,49 Route 27,edison,NJ,8817,Eastern Standard Time,GMT-05:00,America/New_York,05:00,22:00,05:00,22:00,05:00,22:00,05:00,22:00,05:00,22:00,05:00,22:00,05:00,22:00
7658,22993-226584,US,CO,40.210249,-74.257724,621 U.S Highway 9,freehold,NJ,77288565,Eastern Standard Time,GMT-05:00,America/New_York,06:30,12:00,06:30,12:00,06:30,19:00,06:30,19:00,06:30,19:00,05:30,21:00,05:30,21:00
7659,29398-253346,US,CO,40.542098,-74.206936,1243 Woodrow Rd.|306,staten island,NY,10312,Eastern Standard Time,GMT-05:00,America/New_York,06:00,20:00,06:00,20:00,06:00,20:00,06:00,20:00,06:00,20:00,06:00,20:00,06:00,20:00
7660,26647-242587,US,LS,40.55685,-74.263252,Mile Marker 92.9,woodbridge twp,NJ,7095,Eastern Standard Time,GMT-05:00,America/New_York,00:00,00:00,00:00,00:00,00:00,00:00,00:00,00:00,00:00,00:00,00:00,00:00,00:00,00:00
7661,7719-53119,US,CO,40.563379,-74.298491,774 Route 1 N,woodbridge twp,NJ,88302653,Eastern Standard Time,GMT-05:00,America/New_York,05:30,22:00,05:30,22:00,05:30,22:00,05:30,22:00,05:30,22:00,05:30,22:00,05:30,20:30
7662,57892-290747,US,LS,40.560363,-74.264457,Thomas Edison Travel Plaza Milepost 92.9,woodbridge,NJ,7095,Eastern Standard Time,GMT-05:00,America/New_York,07:00,21:00,07:00,21:00,07:00,21:00,07:00,21:00,07:00,21:00,07:00,21:00,07:00,21:00
7663,76554-90969,US,LS,40.548621,-74.426699,5000 Hadley Center Dr,south plainfield,NJ,70801140,Eastern Standard Time,GMT-05:00,America/New_York,08:00,21:00,08:00,21:00,08:00,21:00,08:00,21:00,08:00,21:00,08:00,21:00,08:00,21:00
7664,7254-831,US,CO,40.350756,-74.065578,4-6 White Street,red bank,NJ,77011635,Eastern Standard Time,GMT-05:00,America/New_York,05:00,19:00,05:00,19:00,05:00,19:00,05:00,19:00,05:00,19:00,05:30,19:00,05:30,19:00
7665,2863-271106,US,CO,40.551999,-74.435073,1400 Centennial Avenue,piscataway,NJ,8854,Eastern Standard Time,GMT-05:00,America/New_York,06:00,19:00,06:00,20:00,06:00,20:00,06:00,20:00,06:00,20:00,06:00,19:00,06:30,19:00
7666,7289-751,US,CO,40.333128,-74.061295,551 Route 35|The Grove,shrewsbury,NJ,77024138,Eastern Standard Time,GMT-05:00,America/New_York,05:30,19:00,05:30,19:00,05:30,19:00,05:30,19:00,05:30,19:00,05:30,19:00,05:30,17:30
7667,79448-104049,US,LS,40.429599,-74.558712,3333 Rt. 27,franklin twp,NJ,88231312,Eastern Standard Time,GMT-05:00,America/New_York,06:00,19:30,06:00,19:30,06:00,19:30,06:00,19:30,06:00,19:30,06:00,19:30,06:00,19:30
7668,76790-108083,US,LS,40.382439,-74.574196,4190 Rt 1 N,south brunswick,NJ,8852,Eastern Standard Time,GMT-05:00,America/New_York,08:00,21:00,08:00,21:00,08:00,21:00,08:00,21:00,08:00,21:00,08:00,21:00,08:00,21:00
7669,56930-289377,US,LS,40.277239,-74.540977,70 Princeton Hightstown Rd,east windsor,NJ,85201933,Eastern Standard Time,GMT-05:00,America/New_York,08:00,21:00,08:00,21:00,08:00,21:00,08:00,21:00,08:00,21:00,08:00,21:00,08:00,21:00
7670,7361-1504,US,CO,40.521568,-74.521327,120 Cedar Grove Lane|Cedar Grove Shopping Center,somerset,NJ,88736462,Eastern Standard Time,GMT-05:00,America/New_York,05:30,18:30,05:30,18:30,05:30,18:30,05:30,18:30,05:30,18:30,Closed,Closed,Closed,Closed
7671,20164-203764,US,CO,40.291877,-74.053313,178 Route 35,eatontown,NJ,77241883,Eastern Standard Time,GMT-05:00,America/New_York,05:00,21:00,05:00,21:00,05:00,21:00,05:00,21:00,05:00,21:00,05:30,21:00,05:30,21:00
7672,19642-201004,US,LS,40.575344,-74.169709,2873 Richmond Ave,staten island,NY,10314,Eastern Standard Time,GMT-05:00,America/New_York,08:00,21:00,08:00,21:00,08:00,21:00,08:00,21:00,08:00,21:00,08:00,21:00,08:00,21:00
7673,10398-100807,US,CO,40.581618,-74.166434,2655 Richmond Avenue|1485|Staten Island Mall,staten island,NY,103145821,Eastern Standard Time,GMT-05:00,America/New_York,09:00,19:00,09:00,19:00,09:00,19:00,09:00,19:00,08:00,21:00,08:00,21:00,09:00,18:00
7674,73921-134615,US,LS,41.189751,-74.485323,530 CR-515,vernon,NJ,7462,Eastern Standard Time,GMT-05:00,America/New_York,06:00,20:00,06:00,20:00,06:00,20:00,06:00,20:00,06:00,20:00,06:00,20:00,06:00,20:00
7675,11690-104888,US,CO,41.108843,-74.580818,111 Rt. 23 South,franklin,NJ,74162005,Eastern Standard Time,GMT-05:00,America/New_York,05:00,21:00,05:00,18:00,05:00,21:00,05:00,21:00,05:00,21:00,05:00,21:00,06:00,21:00
7676,57683-290810,US,CO,41.076056,-74.659352,8A North Village Blvd.,sparta,NJ,7848,Eastern Standard Time,GMT-05:00,America/New_York,05:30,21:00,05:30,21:00,05:30,21:00,05:30,21:00,05:30,21:00,05:30,21:00,05:30,21:00
7677,72437-5061,US,LS,41.150285,-74.188083,MM-33 N,sloatsburg,NY,10974,Eastern Standard Time,GMT-05:00,America/New_York,Null,Null,Null,Null,Null,Null,Null,Null,Null,Null,Null,Null,Null,Null
7678,14298-112284,US,CO,41.008917,-74.292615,45 Wanaque Avenue|Pompton Lakes Town Square,pompton lakes,NJ,74422023,Eastern Standard Time,GMT-05:00,America/New_York,05:30,22:00,05:30,22:00,05:30,22:00,05:30,22:00,05:30,22:00,05:30,22:00,06:00,22:00
7679,76836-95674,US,LS,40.99242,-74.312367,94 SR-23,riverdale,NJ,7457,Eastern Standard Time,GMT-05:00,America/New_York,08:00,21:00,08:00,21:00,08:00,21:00,08:00,21:00,08:00,21:00,08:00,21:00,08:00,21:00
7680,14497-116306,US,CO,41.026764,-74.239751,411 Ramapo Valley Rd,oakland,NJ,74362707,Eastern Standard Time,GMT-05:00,America/New_York,05:00,20:30,05:00,20:30,05:00,20:30,05:00,20:30,05:00,20:30,05:00,20:30,06:00,20:30
7681,73858-93628,US,LS,41.098972,-74.146675,125 Franklin Tpke,mahwah,NJ,74301341,Eastern Standard Time,GMT-05:00,America/New_York,06:00,20:00,06:00,20:00,06:00,20:00,06:00,20:00,06:00,20:00,06:00,20:00,06:00,20:00
7682,24477-238100,US,CO,41.084523,-74.152005,380 Route 17 S,mahwah,NJ,74302134,Eastern Standard Time,GMT-05:00,America/New_York,05:00,20:00,05:00,20:00,05:00,20:00,05:00,20:00,05:00,20:00,05:30,20:00,06:00,20:00
7683,13454-106336,US,CO,41.453216,-74.382505,51 Orange Plaza Lane|Orange Plaza,middletown,NY,109402254,Eastern Standard Time,GMT-05:00,America/New_York,05:30,22:00,05:30,22:00,05:30,22:00,05:30,22:00,05:30,22:00,06:30,22:00,06:30,22:00
7684,19917-202867,US,LS,41.454357,-74.366682,1 N Galleria Dr,middletown,NY,10941,Eastern Standard Time,GMT-05:00,America/New_York,08:00,21:00,08:00,21:00,08:00,21:00,08:00,21:00,08:00,21:00,08:00,21:00,08:00,21:00
7685,76491-97547,US,LS,41.317517,-74.153088,128 Bailey Farm Rd,monroe,NY,109504952,Eastern Standard Time,GMT-05:00,America/New_York,08:00,21:00,08:00,21:00,08:00,21:00,08:00,21:00,08:00,21:00,08:00,21:00,08:00,21:00
7686,11928-104892,US,CO,40.994054,-74.213335,816 High Mountain Rd.|Urban Farms Shopping Center,franklin lakes,NJ,74172105,Eastern Standard Time,GMT-05:00,America/New_York,05:30,20:00,05:30,16:00,05:30,16:00,05:30,20:00,05:30,20:00,05:30,20:00,05:30,20:00
7687,13982-106892,US,CO,41.076139,-74.138914,561 North Franklin Turnpike|Franklin Square,ramsey,NJ,74461157,Eastern Standard Time,GMT-05:00,America/New_York,05:30,21:00,05:30,21:00,05:30,21:00,05:30,21:00,05:30,21:00,05:30,21:00,06:00,21:00
7688,47566-258728,US,CO,41.46366,-74.374584,555 Route 211 East|Suite 1,middletown,NY,109411715,Eastern Standard Time,GMT-05:00,America/New_York,05:30,21:00,05:30,21:00,05:30,21:00,05:30,21:00,05:30,22:00,05:30,22:00,06:30,20:00
7689,9660-97316,US,CO,40.907329,-74.558491,395 Mount Hope Avenue|300,rockaway,NJ,78661661,Eastern Standard Time,GMT-05:00,America/New_York,06:00,22:00,06:00,13:00,06:00,22:00,06:00,22:00,06:00,22:00,06:00,22:00,06:00,22:00
7690,48652-263848,US,LS,40.908613,-74.397013,550 Myrtle Avenue,boonton,NJ,7005,Eastern Standard Time,GMT-05:00,America/New_York,07:00,20:00,07:00,20:00,07:00,20:00,07:00,20:00,07:00,20:00,07:00,20:00,07:00,20:00
7691,76236-93128,US,LS,40.905863,-74.559413,381 Mt. Hope Ave,rockaway,NJ,78661697,Eastern Standard Time,GMT-05:00,America/New_York,08:00,21:00,08:00,21:00,08:00,21:00,08:00,21:00,08:00,21:00,08:00,21:00,08:00,21:00
7692,7271-814,US,CO,41.057098,-74.142559,8 West Main Street,ramsey,NJ,74461810,Eastern Standard Time,GMT-05:00,America/New_York,06:00,20:00,06:00,20:00,06:00,20:00,06:00,20:00,06:00,20:00,06:00,20:00,06:00,20:00
7693,7429-802,US,CO,41.111585,-74.113229,215 Route 59|Airmont Village Square,suffern,NY,109015203,Eastern Standard Time,GMT-05:00,America/New_York,06:00,20:30,06:00,20:30,06:00,18:30,06:00,20:30,06:00,21:00,06:00,21:00,06:00,20:30
7694,52732-282854,US,CO,40.944681,-74.273239,"1809 Route 23 South, Wayne",wayne,NJ,7470,Eastern Standard Time,GMT-05:00,America/New_York,05:00,21:00,05:00,21:00,05:00,21:00,05:00,21:00,05:00,21:00,05:00,21:00,05:00,21:00
7695,7280-225285,US,CO,40.960691,-74.240159,1118 Hamburg Turnpike,wayne,NJ,74703280,Eastern Standard Time,GMT-05:00,America/New_York,06:00,22:00,06:00,22:00,06:00,22:00,06:00,22:00,05:30,22:00,06:00,22:00,06:00,22:00
7696,13926-111184,US,CO,40.892933,-74.478476,2-28 West Main Street|Denville Plaza,denville,NJ,78341212,Eastern Standard Time,GMT-05:00,America/New_York,05:30,22:00,05:30,22:00,05:30,22:00,05:30,22:00,05:30,22:00,05:30,22:00,05:30,22:00
7697,7518-12871,US,CO,41.316472,-74.126534,400 Dune Rd.|Route 32|Woodbury Common Premium Outlet,central valley,NY,109176201,Eastern Standard Time,GMT-05:00,America/New_York,Closed,Closed,Closed,Closed,Closed,Closed,Closed,Closed,09:00,19:00,09:00,19:00,10:00,19:00
7698,9366-96094,US,CO,40.939494,-74.269064,1606 Route 23 North,wayne,NJ,74707523,Eastern Standard Time,GMT-05:00,America/New_York,06:00,21:00,06:00,21:00,06:00,21:00,06:00,21:00,06:00,21:00,06:00,21:00,06:30,21:00
7699,7445-2506,US,CO,41.011096,-74.167326,325 Franklin Avenue,wyckoff,NJ,74812035,Eastern Standard Time,GMT-05:00,America/New_York,05:30,22:00,05:30,22:00,05:30,22:00,05:30,22:00,05:30,22:00,06:00,22:00,06:00,21:00
7700,7880-81643,US,CO,40.866573,-74.506932,3056 Route 10 West,denville,NJ,78343486,Eastern Standard Time,GMT-05:00,America/New_York,06:00,21:00,06:00,21:00,06:00,21:00,06:00,21:00,06:00,21:00,06:00,21:00,06:00,21:00
7701,14185-112429,US,CO,40.944719,-74.204925,183 Hamburg Turnpike,wayne,NJ,74702114,Eastern Standard Time,GMT-05:00,America/New_York,06:00,22:00,06:00,22:00,06:00,22:00,06:00,22:00,06:00,22:00,06:00,22:00,06:00,22:00
7702,11929-292060,US,CO,40.986039,-74.139613,129 Godwin Ave,midland park,NJ,7432,Eastern Standard Time,GMT-05:00,America/New_York,05:30,21:00,05:30,21:00,05:30,21:00,05:30,21:00,05:30,21:00,05:30,21:00,06:00,21:00
7703,26761-245299,US,CO,40.863661,-74.398023,1429 Route 46,parsippany,NJ,70542908,Eastern Standard Time,GMT-05:00,America/New_York,05:30,22:00,05:30,22:00,05:30,22:00,05:30,22:00,05:30,22:00,06:00,22:00,06:00,22:00
7704,56239-286411,US,LS,40.862722,-74.388753,1157 US Hwy 46,parsippany,NJ,7054,Eastern Standard Time,GMT-05:00,America/New_York,08:00,21:00,08:00,21:00,08:00,21:00,08:00,21:00,08:00,21:00,08:00,21:00,08:00,21:00
7705,56661-289772,US,CO,40.874168,-74.649845,401 Rt. 10,ledgewood,NJ,78529637,Eastern Standard Time,GMT-05:00,America/New_York,06:00,21:00,06:00,21:00,06:00,21:00,06:00,21:00,06:00,21:00,06:00,21:00,06:00,21:00
7706,25228-237517,US,LS,40.889677,-74.271605,632 US Highway 46,fairfield,NJ,7004,Eastern Standard Time,GMT-05:00,America/New_York,08:00,20:00,08:00,20:00,08:00,20:00,08:00,20:00,08:00,20:00,08:00,20:00,08:00,20:00
7707,65778-300238,US,LS,40.890522,-74.258271,1100 Willowbrook Blvd,wayne,NJ,74706901,Eastern Standard Time,GMT-05:00,America/New_York,11:00,20:00,11:00,20:00,11:00,20:00,11:00,20:00,11:00,21:00,10:00,21:00,11:00,18:00
7708,7451-2504,US,CO,40.888471,-74.259882,1400 Willowbrook Mall|Willowbrook Mall,wayne,NJ,74706905,Eastern Standard Time,GMT-05:00,America/New_York,11:00,20:00,11:00,20:00,11:00,20:00,11:00,20:00,11:00,20:00,09:00,20:00,10:00,19:00
7709,79414-101834,US,LS,40.842558,-74.463449,245 Littleton Road,morris plains,NJ,79502921,Eastern Standard Time,GMT-05:00,America/New_York,06:00,19:00,06:00,19:00,06:00,19:00,06:00,19:00,06:00,19:00,07:00,19:00,07:00,19:00
7710,21295-209404,US,CO,40.889932,-74.249354,57 state route 23,wayne,NJ,74706936,Eastern Standard Time,GMT-05:00,America/New_York,05:30,22:00,05:30,22:00,05:30,22:00,05:30,22:00,05:30,22:00,05:30,22:00,05:30,22:00
7711,26193-243948,US,CO,40.84084,-74.458777,1739 Route 10 East,parsippany,NJ,7054,Eastern Standard Time,GMT-05:00,America/New_York,05:30,18:00,05:30,18:00,05:30,18:00,05:30,18:00,05:30,18:00,06:00,18:00,06:00,18:00
7712,7700-32162,US,CO,40.962206,-74.130878,224 Rock Road,glen rock,NJ,74521709,Eastern Standard Time,GMT-05:00,America/New_York,05:30,21:00,05:30,21:00,05:30,21:00,05:30,21:00,05:30,21:00,05:30,21:00,06:00,20:00
7713,48182-261869,US,CO,40.887713,-74.216153,1730 US 46 West|Unit #4,woodland park,NJ,74241716,Eastern Standard Time,GMT-05:00,America/New_York,06:00,20:00,06:00,20:00,06:00,20:00,06:00,20:00,06:00,20:00,06:00,20:00,06:00,20:00
7714,21655-213985,US,CO,40.943117,-74.129257,16-31 state route 208,fair lawn,NJ,74102805,Eastern Standard Time,GMT-05:00,America/New_York,05:30,21:00,05:30,21:00,05:30,21:00,05:30,21:00,05:30,21:00,05:30,21:00,06:00,21:00
7715,7320-1267,US,CO,40.848909,-74.296981,546 Passaic Ave.,west caldwell,NJ,70067449,Eastern Standard Time,GMT-05:00,America/New_York,05:30,20:00,05:30,20:00,05:30,20:00,05:30,20:00,05:30,20:00,06:30,20:00,06:30,19:30
7716,79741-126993,US,LS,33.743727,-118.100435,1101 Pacific Coast Highway,seal beach,CA,907406245,Pacific Standard Time,GMT-08:00,America/Los_Angeles,06:00,19:00,06:00,19:00,06:00,19:00,06:00,19:00,06:00,19:00,06:00,19:00,06:00,19:00
7717,5255-289,US,CO,33.75973,-118.114645,6324 East Pacific Coast Hwy.|Suite B,long beach,CA,908034840,Pacific Standard Time,GMT-08:00,America/Los_Angeles,05:30,20:00,05:30,20:00,05:30,20:00,05:30,20:00,05:30,20:00,06:00,20:00,06:00,20:00
7718,13748-107954,US,CO,33.758098,-118.082023,2311 Seal Beach Blvd|Suite 101|Pacific Getaway Plaza,seal beach,CA,907405636,Pacific Standard Time,GMT-08:00,America/Los_Angeles,04:30,20:00,04:30,20:00,04:30,20:00,04:30,20:00,04:30,20:00,05:00,20:00,05:00,20:00
7719,21821-215006,US,LS,33.760978,-118.116026,6290 E Pacific Coast Hwy,long beach,CA,90803,Pacific Standard Time,GMT-08:00,America/Los_Angeles,05:00,20:00,05:00,20:00,05:00,20:00,05:00,20:00,05:00,20:00,05:00,20:00,05:00,20:00
7720,579-301,US,CO,33.759984,-118.133684,5251 E 2nd Street,long beach,CA,908035327,Pacific Standard Time,GMT-08:00,America/Los_Angeles,05:00,20:00,05:00,20:00,05:00,20:00,05:00,20:00,05:00,20:00,05:00,20:00,05:00,20:00
7721,29629-254259,US,LS,33.774349,-118.11958,5760 East 7th Street,long beach,CA,90803,Pacific Standard Time,GMT-08:00,America/Los_Angeles,07:00,21:00,07:00,21:00,07:00,21:00,07:00,21:00,07:00,21:00,07:00,21:00,07:00,21:00
7722,79747-136393,US,LS,33.759776,-118.147131,3900 E OCEAN AVENUE,long beach,CA,908032817,Pacific Standard Time,GMT-08:00,America/Los_Angeles,06:00,20:00,06:00,20:00,06:00,20:00,06:00,20:00,06:00,20:00,06:00,20:00,06:00,20:00
7723,5961-15935,US,CO,33.782106,-118.071574,12430 Seal Beach Blvd|#G|Old Ranch Town Center,seal beach,CA,907402791,Pacific Standard Time,GMT-08:00,America/Los_Angeles,05:00,20:00,05:00,20:00,05:00,20:00,05:00,20:00,05:00,20:00,05:30,20:00,05:30,20:00
7724,49343-267857,US,LS,33.7814,-118.069707,12470 Seal Beach Blvd,seal beach,CA,90740,Pacific Standard Time,GMT-08:00,America/Los_Angeles,05:00,20:00,05:00,20:00,05:00,20:00,05:00,20:00,05:00,20:00,05:00,20:00,05:00,20:00
7725,29836-255024,US,LS,33.783166,-118.069591,12300 Seal Beach,seal beach,CA,90740,Pacific Standard Time,GMT-08:00,America/Los_Angeles,08:00,20:00,08:00,20:00,08:00,20:00,08:00,20:00,08:00,20:00,08:00,20:00,08:00,20:00
7726,6865-84720,US,CO,33.795686,-118.108541,2221 Palo Verde Ave|1-A,long beach,CA,908152364,Pacific Standard Time,GMT-08:00,America/Los_Angeles,04:30,19:00,04:30,19:00,04:30,19:00,04:30,19:00,04:30,19:00,05:00,19:00,05:30,19:00
7727,9382-96453,US,CO,33.775204,-118.152613,3390 E. 7th Street,long beach,CA,908045003,Pacific Standard Time,GMT-08:00,America/Los_Angeles,05:00,20:00,05:00,20:00,05:00,20:00,05:00,20:00,05:00,20:00,05:00,20:00,05:00,20:00
7728,5795-285943,US,CO,33.789465,-118.139321,1775 Ximeno Avenue,long beach,CA,90815,Pacific Standard Time,GMT-08:00,America/Los_Angeles,04:30,23:30,04:30,23:30,04:30,23:30,04:30,23:30,04:30,23:30,05:00,23:30,05:00,23:30
7729,79666-114970,US,LS,33.790551,-118.137446,1820 Ximeno Ave,long beach,CA,908152849,Pacific Standard Time,GMT-08:00,America/Los_Angeles,06:00,20:00,06:00,20:00,06:00,20:00,06:00,20:00,06:00,20:00,06:00,20:00,06:00,20:00
7730,17553-164224,US,CO,33.796372,-118.124467,5501 East Stearns Street,long beach,CA,908153125,Pacific Standard Time,GMT-08:00,America/Los_Angeles,04:30,18:30,04:30,18:30,04:30,18:30,04:30,19:30,04:30,20:00,05:00,18:30,05:00,18:00
7731,29755-254260,US,LS,33.798248,-118.123028,2270 N Bellflower Blvd,long beach,CA,90815,Pacific Standard Time,GMT-08:00,America/Los_Angeles,08:00,21:00,08:00,21:00,08:00,21:00,08:00,21:00,08:00,21:00,08:00,21:00,08:00,21:00
7732,10810-101571,US,CO,33.803334,-118.07075,3575 Katella Avenue,los alamitos,CA,907203103,Pacific Standard Time,GMT-08:00,America/Los_Angeles,05:00,20:00,05:00,20:00,05:00,20:00,05:00,20:00,05:00,20:00,05:30,20:00,05:30,19:00
7733,22821-224705,US,CO,33.810184,-118.105527,6560 East Spring Street,long beach,CA,908151554,Pacific Standard Time,GMT-08:00,America/Los_Angeles,05:30,21:00,05:30,21:00,05:30,21:00,05:30,21:00,05:30,21:00,06:00,21:00,06:00,20:30
7734,5808-16794,US,CO,33.808583,-118.124935,2890 N Bellflower Blvd|#A-1|The Los Altos Marketplace,long beach,CA,908151125,Pacific Standard Time,GMT-08:00,America/Los_Angeles,04:30,20:00,04:30,20:00,04:30,20:00,04:30,20:00,04:30,21:00,04:30,20:30,04:30,20:00
7735,74605-79833,US,LS,33.810738,-118.115715,5949 E Spring St,long beach,CA,908083752,Pacific Standard Time,GMT-08:00,America/Los_Angeles,06:00,19:00,06:00,19:00,06:00,19:00,06:00,19:00,06:00,19:00,06:00,19:00,06:00,19:00
7736,16779-161664,US,CO,33.781594,-118.029379,12452 Valley View Street,garden grove,CA,928452033,Pacific Standard Time,GMT-08:00,America/Los_Angeles,05:00,16:00,05:00,16:00,05:00,16:00,05:00,16:00,05:00,16:00,05:30,16:00,05:30,16:00
7737,12956-152240,US,LS,33.768774,-118.18478,600 E Broadway,long beach,CA,908025124,Pacific Standard Time,GMT-08:00,America/Los_Angeles,06:00,20:00,06:00,20:00,06:00,20:00,06:00,20:00,06:00,20:00,06:00,20:00,06:00,20:00
7738,74575-82501,US,LS,33.79003,-118.029243,11861 Valley View St,garden grove,CA,928451236,Pacific Standard Time,GMT-08:00,America/Los_Angeles,06:00,20:00,06:00,16:00,06:00,16:00,06:00,16:00,06:00,16:00,06:00,16:00,06:00,16:00
7739,58306-292001,US,CO,33.802779,-118.041058,5252 Katella Ave,los alamitos,CA,90720,Pacific Standard Time,GMT-08:00,America/Los_Angeles,05:00,20:00,05:00,20:00,05:00,20:00,05:00,20:00,05:00,20:00,05:00,20:00,05:00,20:00
7740,75948-104482,US,LS,33.767646,-118.191295,111 east ocean Boulevard,long beach,CA,908024794,Pacific Standard Time,GMT-08:00,America/Los_Angeles,06:00,12:00,06:00,12:00,06:00,12:00,06:00,12:00,06:00,12:00,06:00,12:00,06:00,12:00
7741,6655-69821,US,CO,33.772864,-118.189133,500 Long Beach Blvd.|City Place,long beach,CA,908022401,Pacific Standard Time,GMT-08:00,America/Los_Angeles,05:00,20:00,05:00,20:00,05:00,20:00,05:00,20:00,05:00,20:00,06:00,20:00,06:00,20:00
7742,27432-247557,US,CO,33.765555,-118.192664,11 The Paseo|430,long beach,CA,908028154,Pacific Standard Time,GMT-08:00,America/Los_Angeles,06:00,21:00,06:00,21:00,06:00,21:00,06:00,21:00,06:00,21:00,06:00,21:00,06:00,21:00
7743,19834-195005,US,LS,33.818422,-118.062222,4033 Ball Rd,cypress,CA,90630,Pacific Standard Time,GMT-08:00,America/Los_Angeles,05:00,20:00,05:00,20:00,05:00,20:00,05:00,20:00,05:00,20:00,05:00,20:00,05:00,20:00
7744,5787-10754,US,CO,33.804118,-118.169935,1788 E. Willow Street|A|Town Center West Shopping Center,signal hill,CA,907551937,Pacific Standard Time,GMT-08:00,America/Los_Angeles,04:30,23:00,04:30,23:00,04:30,23:00,04:30,23:00,04:30,23:00,05:00,23:00,05:00,23:00
7745,23924-234244,US,CO,33.769557,-118.197718,421 West Broadway|800,long beach,CA,908029407,Pacific Standard Time,GMT-08:00,America/Los_Angeles,04:30,20:30,04:30,20:30,04:30,20:30,04:30,20:30,04:30,20:30,05:00,20:00,05:00,20:00
7746,20390-205006,US,CO,33.831719,-118.074094,12161 Carson Street,hawaiian gardens,CA,907161154,Pacific Standard Time,GMT-08:00,America/Los_Angeles,05:00,21:30,05:00,21:30,05:00,21:30,05:00,21:30,05:00,21:30,06:00,22:00,06:00,21:00
7747,19665-192265,US,CO,33.828681,-118.142979,3821 Lakewood Blvd.|103,long beach,CA,908081740,Pacific Standard Time,GMT-08:00,America/Los_Angeles,04:30,20:30,04:30,20:30,04:30,20:30,04:30,20:30,04:30,20:30,05:00,20:30,05:00,20:30
7748,74923-102348,US,LS,33.835137,-118.115422,4226 Woodruff Ave,lakewood,CA,907133143,Pacific Standard Time,GMT-08:00,America/Los_Angeles,06:00,20:00,06:00,20:00,06:00,20:00,06:00,20:00,06:00,20:00,06:00,20:00,06:00,20:00
7749,5817-5525,US,CO,33.80311,-118.014933,10953 Meridian Drive|A|Meridian Plaza,cypress,CA,906305143,Pacific Standard Time,GMT-08:00,America/Los_Angeles,05:00,20:00,05:00,20:00,05:00,20:00,05:00,20:00,05:00,20:00,05:00,20:00,06:00,19:00
7750,10131-99101,US,CO,33.816449,-118.029272,10031 Valley View Street|1K|Cypress East Shopping Center,cypress,CA,906304601,Pacific Standard Time,GMT-08:00,America/Los_Angeles,04:30,20:00,04:30,20:00,04:30,20:00,04:30,20:00,04:30,20:00,04:30,20:00,05:00,20:00
7751,21423-211904,US,LS,33.803983,-118.013141,6835 Katella Ave,cypress,CA,90630,Pacific Standard Time,GMT-08:00,America/Los_Angeles,08:00,21:00,08:00,21:00,08:00,21:00,08:00,21:00,08:00,21:00,08:00,21:00,08:00,21:00
7752,23315-218444,US,CO,33.811997,-118.18111,999 Spring Street,signal hill,CA,90755,Pacific Standard Time,GMT-08:00,America/Los_Angeles,04:30,00:00,04:30,00:00,04:30,00:00,04:30,00:00,04:30,00:00,05:00,00:00,05:00,00:00
7753,29569-254305,US,CO,37.005788,-121.550616,7050 Camino Arroyo|100,gilroy,CA,950207310,Pacific Standard Time,GMT-08:00,America/Los_Angeles,04:30,21:30,04:30,21:30,04:30,21:30,04:30,21:30,04:30,23:00,04:30,22:30,05:00,21:30
7754,858-2049,US,CO,40.839676,-74.208046,572 Valley Road,upper montclair,NJ,70431805,Eastern Standard Time,GMT-05:00,America/New_York,05:30,20:00,05:30,20:00,05:30,20:00,05:30,20:00,05:30,20:00,05:30,20:00,05:30,20:00
7755,9273-95101,US,CO,40.821507,-74.327973,43 Eisenhower Parkway|Eagle Rock Plaza,roseland,NJ,70681607,Eastern Standard Time,GMT-05:00,America/New_York,05:30,20:00,05:30,20:00,05:30,20:00,05:30,20:00,05:30,20:00,06:00,20:00,06:00,20:00
7756,53592-285800,US,CO,40.903,-74.071708,"160 Rt. 17, Rochelle Park",rochelle park,NJ,7662,Eastern Standard Time,GMT-05:00,America/New_York,05:30,21:00,05:30,21:00,05:30,21:00,05:30,21:00,05:30,21:00,05:30,21:00,05:30,21:00
7757,13856-108464,US,CO,40.814248,-74.220077,40 South Park St|The Siena,montclair,NJ,70422716,Eastern Standard Time,GMT-05:00,America/New_York,Closed,Closed,05:30,19:00,05:30,19:00,05:30,19:00,05:30,19:00,05:30,19:00,Closed,Closed
7758,29956-255467,US,LS,40.81055,-74.383742,130 State Rte 10,east hanover,NJ,7936,Eastern Standard Time,GMT-05:00,America/New_York,08:00,21:00,08:00,21:00,08:00,21:00,08:00,21:00,08:00,21:00,08:00,21:00,08:00,21:00
7759,7649-34579,US,CO,40.823195,-74.156095,483 Franklin Avenue,nutley,NJ,71101758,Eastern Standard Time,GMT-05:00,America/New_York,05:00,19:00,05:00,19:00,05:00,19:00,05:00,19:00,05:00,19:00,06:00,19:00,06:00,19:00
7760,27065-246611,US,CO,40.81248,-74.469502,178 Hanover Avenue|101,cedar knolls,NJ,79272038,Eastern Standard Time,GMT-05:00,America/New_York,05:30,21:00,05:30,21:00,05:30,21:00,05:30,21:00,05:30,21:00,06:00,21:00,06:00,21:00
7761,15236-155385,US,CO,40.7974,-74.481536,40 Park Place,morristown,NJ,7960,Eastern Standard Time,GMT-05:00,America/New_York,05:30,21:00,05:30,21:00,05:30,21:00,05:30,21:00,05:30,21:00,05:30,21:00,05:30,21:00
7762,23132-226725,US,LS,40.788366,-74.465611,100 Madison Ave,morristown,NJ,7960,Eastern Standard Time,GMT-05:00,America/New_York,07:00,19:00,07:00,19:00,07:00,19:00,07:00,19:00,07:00,19:00,08:00,19:00,08:00,19:00
7763,859-558,US,CO,40.789101,-74.393328,184 Columbia Turnpike,florham park,NJ,79321314,Eastern Standard Time,GMT-05:00,America/New_York,06:00,21:00,06:00,20:00,06:00,20:00,06:00,20:00,06:00,20:00,06:00,20:00,06:00,20:00
7764,7475-248323,US,CO,40.798488,-74.340675,288 Eisenhower Parkway,livingston,NJ,70393928,Eastern Standard Time,GMT-05:00,America/New_York,06:00,21:00,06:00,21:00,06:30,21:00,06:30,21:00,06:30,22:00,06:30,22:00,06:00,21:00
7765,7243-563,US,CO,40.795596,-74.315703,1 West Mt. Pleasant Avenue,livingston,NJ,70392972,Eastern Standard Time,GMT-05:00,America/New_York,05:30,20:30,05:30,20:30,05:30,20:30,05:30,20:30,06:30,21:00,06:30,21:00,06:30,20:00
7766,79737-104055,US,LS,34.114647,-117.773214,1500 FOOTHILL BL.,la verne,CA,917503434,Pacific Standard Time,GMT-08:00,America/Los_Angeles,06:00,20:00,06:00,20:00,06:00,20:00,06:00,20:00,06:00,20:00,06:00,20:00,06:00,20:00
7767,5779-16456,US,CO,34.119187,-117.781306,1181 Foothill Boulevard|Gateway Pointe,la verne,CA,917503328,Pacific Standard Time,GMT-08:00,America/Los_Angeles,04:30,22:00,04:30,22:00,04:30,22:00,04:30,22:00,04:30,22:00,05:00,22:00,05:00,22:00
7768,76577-99296,US,LS,34.109734,-117.759688,2462 Foothill Blvd,la verne,CA,917503056,Pacific Standard Time,GMT-08:00,America/Los_Angeles,08:00,21:00,08:00,21:00,08:00,21:00,08:00,21:00,08:00,21:00,08:00,21:00,08:00,21:00
7769,29620-254406,US,CO,34.107322,-117.740195,517 East Foothill Blvd,pomona,CA,917671219,Pacific Standard Time,GMT-08:00,America/Los_Angeles,05:00,21:30,05:00,19:30,05:00,19:30,05:00,21:30,05:00,19:30,05:30,19:30,06:00,21:30
7770,9548-96260,US,CO,34.128536,-117.83023,1832 East Route 66|A,glendora,CA,917403804,Pacific Standard Time,GMT-08:00,America/Los_Angeles,04:30,21:30,04:30,21:30,04:30,21:30,04:30,21:30,04:30,21:30,05:30,21:30,06:00,21:00
7771,5229-444,US,CO,34.095718,-117.718104,203 Yale Avenue,claremont,CA,917114725,Pacific Standard Time,GMT-08:00,America/Los_Angeles,05:30,21:00,05:30,21:00,05:30,21:00,05:30,21:00,05:30,21:00,05:30,21:00,05:30,21:00
7772,74658-94672,US,LS,34.121464,-117.706665,550 E Baseline Rd,claremont,CA,917112236,Pacific Standard Time,GMT-08:00,America/Los_Angeles,06:00,20:00,06:00,20:00,06:00,20:00,06:00,20:00,06:00,20:00,06:00,20:00,06:00,20:00
7773,6981-85422,US,CO,34.081073,-117.719007,810 S. Indian Hill Blvd.,claremont,CA,917115454,Pacific Standard Time,GMT-08:00,America/Los_Angeles,04:30,22:00,04:30,22:00,04:30,22:00,04:30,22:00,04:30,22:00,04:30,22:00,05:00,22:00
7774,51195-273704,US,CO,34.122076,-117.68983,2129 W. 16th Street|Ste. 100,upland,CA,91784,Pacific Standard Time,GMT-08:00,America/Los_Angeles,05:00,22:00,05:00,22:00,05:00,22:00,05:00,22:00,05:00,22:00,05:30,22:00,05:30,22:00
7775,17693-180530,US,CO,34.086778,-117.693624,5060 East Montclair Plaza|Suite 5067|Montclair Plaza,montclair,CA,917631500,Pacific Standard Time,GMT-08:00,America/Los_Angeles,11:00,20:00,11:00,18:00,11:00,18:00,11:00,18:00,11:00,20:00,11:00,20:00,11:00,19:00
7776,51730-273004,US,LS,34.090235,-117.690988,9052 CENTRAL AVENUE,montclair,CA,91763,Pacific Standard Time,GMT-08:00,America/Los_Angeles,08:00,21:00,08:00,21:00,08:00,21:00,08:00,21:00,08:00,21:00,08:00,21:00,08:00,21:00
7777,74624-94035,US,LS,34.136234,-117.86082,435 W Foothill Blvd,glendora,CA,917412653,Pacific Standard Time,GMT-08:00,America/Los_Angeles,06:00,19:00,06:00,19:00,06:00,19:00,06:00,19:00,06:00,19:00,06:00,19:00,06:00,19:00
7778,24325-237107,US,CO,34.084529,-117.689151,9389 Central Avenue|B,montclair,CA,917632451,Pacific Standard Time,GMT-08:00,America/Los_Angeles,03:30,21:30,03:30,21:30,03:30,21:30,03:30,21:30,03:30,22:30,05:30,22:30,05:30,21:30
7779,6428-39980,US,CO,34.107319,-117.665722,1013 W. Foothill Blvd.|A|Upland Convenience Center,upland,CA,917863788,Pacific Standard Time,GMT-08:00,America/Los_Angeles,05:00,22:00,05:00,22:00,05:00,22:00,05:00,22:00,05:00,22:00,06:00,22:00,06:00,21:00
7780,7967-94940,US,CO,34.085755,-117.669704,1520 N. Mountain Ave.|B,ontario,CA,917621128,Pacific Standard Time,GMT-08:00,America/Los_Angeles,04:30,00:00,04:30,00:00,04:30,00:00,04:30,00:00,04:30,00:00,04:30,00:00,04:30,00:00
7781,74589-83729,US,LS,34.107806,-117.653033,81 West Foothill Blvd,upland,CA,917863846,Pacific Standard Time,GMT-08:00,America/Los_Angeles,06:00,20:00,06:00,20:00,06:00,20:00,06:00,20:00,06:00,20:00,06:00,20:00,06:00,20:00
7782,51875-279587,US,CO,34.063675,-117.661071,706 W. Holt Blvd.,ontario,CA,917623626,Pacific Standard Time,GMT-08:00,America/Los_Angeles,04:00,23:00,04:00,23:00,04:00,23:00,04:00,23:00,04:00,23:00,05:00,23:00,05:00,23:00
7783,60720-294568,US,CO,34.068379,-117.651415,507 N Euclid Ave,ontario,CA,91762,Pacific Standard Time,GMT-08:00,America/Los_Angeles,05:00,22:00,05:00,22:00,05:00,22:00,05:00,22:00,05:00,22:00,06:00,22:00,06:00,22:00
7784,76304-90543,US,LS,34.132977,-117.640653,1931 N Campus Ave,upland,CA,917841667,Pacific Standard Time,GMT-08:00,America/Los_Angeles,08:00,21:00,08:00,21:00,08:00,21:00,08:00,21:00,08:00,21:00,08:00,21:00,08:00,21:00
7785,24598-235460,US,LS,34.032842,-117.681804,5555 Philadelphia St,chino,CA,91710,Pacific Standard Time,GMT-08:00,America/Los_Angeles,08:00,21:00,08:00,21:00,08:00,21:00,08:00,21:00,08:00,21:00,08:00,21:00,08:00,21:00
7786,8858-94195,US,CO,34.133568,-117.638131,1943 North Campus Avenue|#D,upland,CA,917848204,Pacific Standard Time,GMT-08:00,America/Los_Angeles,05:00,21:00,05:00,21:00,05:00,21:00,05:00,21:00,05:00,21:00,05:00,21:00,06:00,21:00
7787,49572-267936,US,LS,34.131169,-117.637661,1910 N. Campus Ave,upland,CA,91784,Pacific Standard Time,GMT-08:00,America/Los_Angeles,06:00,20:00,06:00,20:00,06:00,20:00,06:00,20:00,06:00,20:00,06:00,20:00,06:00,20:00
7788,14253-117484,US,CO,38.715796,-75.086265,301 Rehoboth Ave|301 Rehoboth Ave,rehoboth beach,DE,199713236,Eastern Standard Time,GMT-05:00,America/New_York,06:00,20:00,05:30,21:00,05:30,19:00,05:30,21:00,05:30,21:00,05:30,21:00,05:30,21:00
7789,7807-257784,US,CO,38.720863,-75.120494,19946 Coastal Highway,rehoboth beach,DE,19971,Eastern Standard Time,GMT-05:00,America/New_York,05:00,21:00,05:00,21:00,05:00,18:00,05:00,21:00,05:00,21:00,05:00,21:00,05:00,21:00
7790,74731-97006,US,LS,38.724316,-75.126639,4396 SR-1|302,rehoboth beach,DE,19971,Eastern Standard Time,GMT-05:00,America/New_York,06:00,20:00,06:00,20:00,06:00,20:00,06:00,20:00,06:00,20:00,06:00,20:00,06:00,20:00
7791,48779-264324,US,LS,38.736456,-75.14358,18578 Coastal Highway,rehoboth beach,DE,19971,Eastern Standard Time,GMT-05:00,America/New_York,06:00,20:00,06:00,20:00,06:00,20:00,06:00,20:00,06:00,20:00,06:00,20:00,06:00,20:00
7792,58938-292864,US,LS,38.630692,-75.195396,25939 John J. WIlliams Hwy.,long neck,DE,19966,Eastern Standard Time,GMT-05:00,America/New_York,06:00,20:00,06:00,20:00,06:00,20:00,06:00,20:00,06:00,20:00,06:00,20:00,06:00,20:00
7793,79396-97468,US,LS,38.545593,-75.107449,38069 Town Center Dr|Unit 9,millville,DE,199676968,Eastern Standard Time,GMT-05:00,America/New_York,06:00,19:00,06:00,19:00,06:00,19:00,06:00,19:00,06:00,19:00,06:00,19:00,06:00,19:00
7794,55188-289012,US,CO,38.575035,-75.286962,28662 Dupont Blvd|4,millsboro,DE,199664794,Eastern Standard Time,GMT-05:00,America/New_York,05:00,21:00,05:00,21:00,05:00,19:00,05:00,21:00,05:00,21:00,06:00,21:00,06:00,21:00
7795,73836-100578,US,LS,38.469957,-75.114104,31221 Americana Parkway,selbyville,DE,199753785,Eastern Standard Time,GMT-05:00,America/New_York,07:00,19:00,07:00,19:00,07:00,19:00,07:00,19:00,07:00,19:00,07:00,19:00,07:00,19:00
7796,53001-278888,US,CO,38.428246,-75.056096,53001 123rd & Coastal Highway,ocean city,MD,218424703,Eastern Standard Time,GMT-05:00,America/New_York,05:00,20:00,05:00,20:00,05:00,19:00,05:00,20:00,05:00,20:00,05:00,20:00,05:00,20:00
7797,10461-256046,US,CO,39.016147,-74.874077,3308 Route 9 South,rio grande,NJ,82421643,Eastern Standard Time,GMT-05:00,America/New_York,06:00,21:00,06:00,21:00,06:00,21:00,06:00,21:00,06:00,21:00,06:00,21:00,06:00,21:00
7798,47117-253886,US,LS,38.346537,-75.077976,1610 Baltimore Ave,ocean city,MD,21842,Eastern Standard Time,GMT-05:00,America/New_York,06:30,18:00,06:30,18:00,06:30,18:00,06:30,18:00,06:30,20:00,06:30,20:00,06:30,18:00
7799,2871-289081,US,CO,38.335562,-75.100771,12911 Ocean Gateway|100,ocean city,MD,21842,Eastern Standard Time,GMT-05:00,America/New_York,05:00,21:00,05:00,21:00,05:00,19:00,05:00,21:00,05:00,21:00,05:00,21:00,05:00,21:00
7800,25349-240547,US,CO,39.194117,-75.546712,1481 North Dupont Highway,dover,DE,199012212,Eastern Standard Time,GMT-05:00,America/New_York,05:00,21:00,05:00,21:00,05:00,18:00,05:00,21:00,05:00,21:00,05:30,21:00,05:30,21:00
7801,21403-206765,US,LS,39.276696,-74.578972,1061 Asbury Ave,ocean city,NJ,8226,Eastern Standard Time,GMT-05:00,America/New_York,06:00,19:00,06:00,19:00,06:00,19:00,06:00,19:00,06:00,19:00,06:00,19:00,06:00,19:00
7802,48133-258466,US,LS,39.275555,-74.569975,820 Boardwalk,ocean city,NJ,8226,Eastern Standard Time,GMT-05:00,America/New_York,07:00,19:00,07:00,19:00,07:00,19:00,07:00,19:00,07:00,19:00,07:00,19:00,07:00,19:00
7803,62526-296691,US,CO,39.283865,-75.594538,1350 S Dupont Blvd - Smyrna,smyrna,DE,19977,Eastern Standard Time,GMT-05:00,America/New_York,Closed,Closed,Closed,Closed,Closed,Closed,05:30,18:00,05:30,18:00,05:30,18:00,05:30,18:00
7804,76696-98031,US,LS,39.423115,-75.040324,2116 N 2nd St,millville,NJ,83321304,Eastern Standard Time,GMT-05:00,America/New_York,08:00,21:00,08:00,21:00,08:00,21:00,08:00,21:00,08:00,21:00,08:00,21:00,08:00,21:00
7805,8963-95327,US,CO,39.432398,-75.038723,3849 S. Delsea Road|Space #A0013|Cumberland Mall,vineland,NJ,83607406,Eastern Standard Time,GMT-05:00,America/New_York,05:30,21:30,05:30,21:30,05:30,21:30,05:30,21:30,05:30,21:30,06:00,21:30,06:00,21:30
7806,10765-102544,US,CO,47.891054,-122.257724,11802 Evergreen Way,everett,WA,982043784,Pacific Standard Time,GMT-08:00,America/Los_Angeles,04:00,19:00,04:00,19:00,04:00,19:00,04:00,19:00,04:00,19:00,05:00,18:00,05:00,19:00
7807,74694-94732,US,LS,47.962549,-122.211886,4128 Rucker Ave,everett,WA,982032211,Pacific Standard Time,GMT-08:00,America/Los_Angeles,06:00,19:00,06:00,19:00,06:00,19:00,06:00,19:00,06:00,19:00,06:00,19:00,06:00,19:00
7808,3411-81720,US,CO,47.906123,-122.29405,10100 Mukilteo Speedway|Harbour Pointe Retail Town Center,mukilteo,WA,982754752,Pacific Standard Time,GMT-08:00,America/Los_Angeles,03:30,19:00,03:30,19:00,03:30,16:00,03:30,19:00,03:30,19:00,05:00,19:00,05:00,19:00
7809,79303-100352,US,LS,47.89125,-122.287606,11700 Mukilteo Speedway,mukilteo,WA,982755432,Pacific Standard Time,GMT-08:00,America/Los_Angeles,05:00,19:00,05:00,19:00,05:00,19:00,05:00,19:00,05:00,19:00,05:00,19:00,05:00,19:00
7810,11212-103414,US,CO,47.884434,-122.281629,12502 Mukilteo Speedway|A-1,mukilteo,WA,982755730,Pacific Standard Time,GMT-08:00,America/Los_Angeles,03:30,20:00,03:30,20:00,03:30,20:00,03:30,20:00,03:30,20:00,04:30,20:00,04:30,20:00
7811,73196-21481,US,LS,47.881071,-122.280738,12811 Beverly Park Rd,lynnwood,WA,980875126,Pacific Standard Time,GMT-08:00,America/Los_Angeles,06:00,19:00,06:00,19:00,06:00,19:00,06:00,19:00,06:00,19:00,06:00,19:00,06:00,19:00
7812,59747-294074,US,LS,47.982617,-122.200364,2615 Broadway,everett,WA,98201,Pacific Standard Time,GMT-08:00,America/Los_Angeles,06:00,19:00,06:00,19:00,06:00,19:00,06:00,19:00,06:00,19:00,06:00,19:00,06:00,19:00
7813,15546-154509,US,CO,47.86442,-122.283246,3625 148th St SW|A101,lynnwood,WA,980875577,Pacific Standard Time,GMT-08:00,America/Los_Angeles,04:00,20:00,04:00,20:00,04:00,20:00,04:00,20:00,04:00,20:00,04:30,19:30,05:30,17:30
7814,74253-52059,US,LS,47.863621,-122.284047,14826 Hwy 99,lynnwood,WA,980872322,Pacific Standard Time,GMT-08:00,America/Los_Angeles,06:00,19:30,06:00,19:30,05:00,19:30,06:00,19:30,06:00,19:30,06:00,19:30,06:00,19:30
7815,74959-99505,US,LS,47.994286,-122.200576,1715 Broadway,everett,WA,982012346,Pacific Standard Time,GMT-08:00,America/Los_Angeles,06:00,19:00,06:00,19:00,06:00,19:00,06:00,19:00,06:00,19:00,07:00,19:00,07:00,19:00
7816,15402-154504,US,CO,47.849677,-122.273094,"2902 164th St. SW|Building G, Suite 1",lynnwood,WA,980373219,Pacific Standard Time,GMT-08:00,America/Los_Angeles,04:30,20:00,04:30,20:00,04:30,20:00,04:30,20:00,04:30,20:00,05:00,19:30,05:00,19:30
7817,5088-139825,US,LS,47.847467,-122.272776,2902 164th St SW,lynnwood,WA,980873219,Pacific Standard Time,GMT-08:00,America/Los_Angeles,06:00,19:00,06:00,19:00,06:00,19:00,06:00,19:00,06:00,19:00,06:00,19:00,06:00,19:00
7818,22817-205264,US,CO,48.004056,-122.200185,1010 N Broadway,everett,WA,982011406,Pacific Standard Time,GMT-08:00,America/Los_Angeles,04:30,20:00,04:30,20:00,04:30,20:00,04:30,20:00,04:30,20:00,04:30,20:00,04:30,20:00
7819,10531-94440,US,CO,47.846009,-122.294187,16809 Highway 99|A,lynnwood,WA,980373103,Pacific Standard Time,GMT-08:00,America/Los_Angeles,04:30,20:00,04:30,18:00,04:30,18:00,04:30,18:00,04:30,18:00,05:00,18:00,05:00,18:00
7820,16155-168545,US,LS,47.832609,-122.266345,18305 Alderwood Mall Pkwy,lynnwood,WA,980373961,Pacific Standard Time,GMT-08:00,America/Los_Angeles,07:00,20:00,07:00,20:00,07:00,20:00,07:00,20:00,07:00,20:00,07:00,20:00,07:00,20:00
7821,11705-105904,US,CO,47.829465,-122.272234,3000 184th St SW|3516|Alderwood Mall,lynnwood,WA,980374718,Pacific Standard Time,GMT-08:00,America/Los_Angeles,09:30,20:00,09:30,20:00,09:30,20:00,09:30,20:00,09:30,20:00,09:30,20:00,10:30,19:00
7822,8889-95129,US,CO,47.823849,-122.271342,19220 Alderwood Mall Parkway|100|Alderwood Mall Parkway,lynnwood,WA,980364800,Pacific Standard Time,GMT-08:00,America/Los_Angeles,06:00,17:00,06:00,17:00,06:00,17:00,06:00,17:00,06:00,17:00,07:00,16:00,07:00,16:00
7823,3276-2845,US,CO,47.820575,-122.288043,4028 196th Street SW|Ste. A,lynnwood,WA,980366770,Pacific Standard Time,GMT-08:00,America/Los_Angeles,04:30,20:00,04:30,20:00,04:30,20:00,04:30,20:00,04:30,21:00,04:30,20:00,04:30,15:30
7824,28276-94930,US,LS,47.821753,-122.295504,4615 196th St SW,lynnwood,WA,980365596,Pacific Standard Time,GMT-08:00,America/Los_Angeles,06:00,19:00,06:00,17:00,06:00,17:00,06:00,17:00,06:00,19:00,06:00,19:00,06:00,19:00
7825,72668-65003,US,LS,33.192491,-87.51856,1901 13th Ave E,tuscaloosa,AL,354044785,Central Standard Time,GMT-06:00,America/Chicago,08:00,20:00,08:00,20:00,08:00,20:00,08:00,20:00,08:00,20:00,08:00,21:00,08:00,21:00
7826,13482-249086,US,CO,33.197359,-87.524518,816 Veterans Memorial Parkway,tuscaloosa,AL,354045850,Central Standard Time,GMT-06:00,America/Chicago,05:30,21:00,05:30,21:00,05:30,21:00,05:30,21:00,05:30,21:00,05:30,21:00,05:30,21:00
7827,72121-3608,US,LS,33.214493,-87.545864,1000 McCorvey Dr.|UoA-Ferguson Center|BAMA Dining Services/Starbucks Coffee,tuscaloosa,AL,35487,Central Standard Time,GMT-06:00,America/Chicago,07:00,23:00,07:00,23:00,07:00,23:00,07:00,23:00,07:00,20:00,10:00,21:00,10:00,21:00
7828,48066-207044,US,LS,33.205982,-87.547243,807 Paul W Bryant Dr,tuscaloosa,AL,35401,Central Standard Time,GMT-06:00,America/Chicago,06:30,20:30,06:30,20:30,06:30,20:30,06:30,20:30,06:30,20:30,06:30,20:30,06:30,20:30
7829,47023-256271,US,CO,33.165856,-87.549457,804 Skyland Boulevard,tuscaloosa,AL,354053905,Central Standard Time,GMT-06:00,America/Chicago,05:30,20:30,05:30,20:30,05:30,20:30,05:30,20:30,05:30,20:30,05:30,20:30,05:30,20:30
7830,14459-106886,US,CO,29.807157,-95.167535,15252 Wallisville Rd|B,houston,TX,770494618,Central Standard Time,GMT-06:00,America/Chicago,04:00,23:00,04:00,23:00,04:00,21:00,04:00,23:00,04:00,23:30,04:30,23:30,05:00,23:00
7831,10411-100318,US,CO,29.886085,-95.063622,2123 Hwy 90,crosby,TX,775326681,Central Standard Time,GMT-06:00,America/Chicago,04:30,20:30,04:30,20:30,04:30,19:00,04:30,20:30,04:30,20:30,05:30,21:30,05:30,21:30
7832,19881-173505,US,CO,29.92546,-95.197115,12661 W Lake Houston Pkwy|Suite A,houston,TX,770441453,Central Standard Time,GMT-06:00,America/Chicago,04:00,22:00,04:00,22:00,04:00,19:30,04:00,22:00,04:00,22:00,04:30,22:00,04:30,22:00
7833,47262-248786,US,LS,29.924726,-95.203632,14221 E Sam Houston Pkwy N,houston,TX,77044,Central Standard Time,GMT-06:00,America/Chicago,06:00,21:00,06:00,21:00,06:00,21:00,06:00,21:00,06:00,21:00,06:00,21:00,06:00,21:00
7834,11150-102278,US,CO,29.936034,-95.249882,4830 Wilson Rd|100,humble,TX,773961975,Central Standard Time,GMT-06:00,America/Chicago,04:30,22:00,04:30,22:00,04:30,19:30,04:30,22:00,04:30,22:30,04:30,22:30,05:00,22:00
7835,3444-83420,US,CO,29.69776,-95.297697,1450 Gulfgate Center,houston,TX,770873032,Central Standard Time,GMT-06:00,America/Chicago,05:00,22:00,05:00,22:00,05:00,20:00,05:00,22:00,05:00,22:00,05:30,22:00,05:30,22:00
7836,29831-247784,US,LS,29.792624,-94.983845,6231 Garth Rd,baytown,TX,77251,Central Standard Time,GMT-06:00,America/Chicago,06:00,21:00,06:00,21:00,06:00,21:00,06:00,21:00,06:00,21:00,06:00,21:00,06:00,21:00
7837,10619-101322,US,CO,29.805186,-94.982954,5017 Interstate 10,baytown,TX,775218367,Central Standard Time,GMT-06:00,America/Chicago,04:30,22:00,04:30,22:00,04:30,20:00,04:30,22:00,04:30,22:00,04:30,22:00,04:30,22:00
7838,7943-95796,US,CO,29.774029,-94.978134,4557 Garth Rd,baytown,TX,775212123,Central Standard Time,GMT-06:00,America/Chicago,04:30,22:30,04:30,22:30,04:30,20:00,04:30,22:30,04:30,22:30,05:00,22:30,05:00,22:30
7839,76418-96282,US,LS,29.771959,-94.976285,4510 Garth Rd,baytown,TX,775212124,Central Standard Time,GMT-06:00,America/Chicago,08:00,21:00,08:00,21:00,08:00,21:00,08:00,21:00,08:00,21:00,08:00,21:00,08:00,21:00
7840,75246-93543,US,LS,29.765966,-95.359064,1 Main St,houston,TX,770021014,Central Standard Time,GMT-06:00,America/Chicago,08:00,14:00,08:00,14:00,08:00,14:00,08:00,14:00,08:00,12:00,Closed,Closed,Closed,Closed
7841,18403-190284,US,LS,29.720191,-95.340638,4790 CALHOUN RD,houston,TX,77204,Central Standard Time,GMT-06:00,America/Chicago,07:00,20:00,07:00,20:00,07:00,20:00,07:00,20:00,07:00,17:00,08:00,17:00,Closed,Closed
7842,75216-94073,US,LS,29.7514,-95.359193,1001 Avenida de las Americas,houston,TX,770106035,Central Standard Time,GMT-06:00,America/Chicago,08:00,13:00,08:00,13:00,08:00,13:00,08:00,13:00,08:00,13:00,07:00,17:00,07:00,17:00
7843,26808-237108,US,LS,29.751573,-95.360123,1600 Lamar St,houston,TX,77010,Central Standard Time,GMT-06:00,America/Chicago,06:00,16:00,06:00,16:00,06:00,16:00,06:00,16:00,06:00,18:00,06:00,18:00,06:00,16:00
7844,6267-180127,US,CO,29.760389,-95.363966,600 Travis St.,houston,TX,770023009,Central Standard Time,GMT-06:00,America/Chicago,05:30,16:00,05:30,16:00,05:30,16:00,05:30,16:00,05:30,15:00,Closed,Closed,Closed,Closed
7845,60168-292977,US,LS,29.758586,-95.363432,723 MAIN ST,houston,TX,77002,Central Standard Time,GMT-06:00,America/Chicago,06:00,19:00,06:00,19:00,06:00,19:00,06:00,19:00,06:00,19:00,07:00,19:00,07:00,19:00
7846,11297-103802,US,CO,29.980105,-95.217187,3805 Atascocita Road,houston,TX,773963534,Central Standard Time,GMT-06:00,America/Chicago,05:00,20:00,05:00,20:00,05:00,20:00,05:00,20:00,05:00,21:00,05:00,21:00,06:00,20:00
7847,6278-1388,US,CO,29.759993,-95.365584,711 Louisiana|Suite R-204|Pennzoil Place,houston,TX,770022716,Central Standard Time,GMT-06:00,America/Chicago,05:30,17:00,05:30,17:00,05:30,17:00,05:30,17:00,05:30,17:00,Closed,Closed,Closed,Closed
7848,10056-97452,US,CO,29.755592,-95.366533,914 Dallas Street,houston,TX,770026326,Central Standard Time,GMT-06:00,America/Chicago,05:30,18:00,05:30,18:00,05:30,18:00,05:30,18:00,05:30,18:00,06:00,15:00,06:00,15:00
7849,6409-22703,US,CO,29.757619,-95.369153,1100 Louisiana St,houston,TX,770025227,Central Standard Time,GMT-06:00,America/Chicago,05:30,17:00,05:30,17:00,05:30,17:00,05:30,17:00,05:30,16:00,Closed,Closed,Closed,Closed
7850,10298-98603,US,CO,29.750543,-95.374653,2101 Smith Street|101,houston,TX,770028728,Central Standard Time,GMT-06:00,America/Chicago,05:00,20:00,05:00,20:00,05:00,20:00,05:00,20:00,05:00,20:00,05:00,20:00,05:00,20:00
7851,74572-59199,US,LS,29.749195,-95.374657,2225 Louisiana,houston,TX,770028625,Central Standard Time,GMT-06:00,America/Chicago,06:00,20:00,06:00,20:00,06:00,20:00,06:00,20:00,06:00,20:00,06:00,20:00,06:00,20:00
7852,6962-87884,US,CO,29.99786,-95.177962,6300 FM 1960 East,humble,TX,773462718,Central Standard Time,GMT-06:00,America/Chicago,05:00,21:00,05:00,21:00,05:00,19:00,05:00,21:00,05:00,21:30,05:00,21:30,05:30,21:00
7853,19258-177005,US,CO,29.746964,-95.376669,2625 Louisiana Street,houston,TX,770063583,Central Standard Time,GMT-06:00,America/Chicago,05:00,21:00,05:00,21:00,05:00,21:00,05:00,21:00,05:00,21:00,05:00,21:00,06:00,21:00
7854,76585-98007,US,LS,29.774488,-95.384862,2580 Shearn St,houston,TX,770073967,Central Standard Time,GMT-06:00,America/Chicago,08:00,21:00,08:00,21:00,08:00,21:00,08:00,21:00,08:00,21:00,08:00,21:00,08:00,21:00
7855,22880-220584,US,CO,29.99913,-95.193816,5353 FM1960 Rd East,humble,TX,773462536,Central Standard Time,GMT-06:00,America/Chicago,04:30,22:00,04:30,22:00,04:30,20:00,04:30,22:00,04:30,22:00,05:00,22:00,05:30,22:00
7856,76902-125825,US,LS,30.000581,-95.172673,6931 FM 1960 Rd E,atascocita,TX,773462705,Central Standard Time,GMT-06:00,America/Chicago,08:00,20:00,08:00,20:00,08:00,20:00,08:00,20:00,08:00,20:00,08:00,20:00,08:00,20:00
7857,79435-101500,US,LS,30.001013,-95.161051,19300 W. Lake Houston,humble,TX,773462182,Central Standard Time,GMT-06:00,America/Chicago,06:00,21:00,06:00,21:00,06:00,21:00,06:00,21:00,06:00,21:00,06:00,21:00,06:00,21:00
7858,16890-170646,US,LS,29.773527,-95.389947,1440 Studemont St,houston,TX,77007,Central Standard Time,GMT-06:00,America/Chicago,06:00,21:00,06:00,21:00,06:00,21:00,06:00,21:00,06:00,21:00,06:00,21:00,06:00,21:00
7859,6241-965,US,CO,29.742142,-95.390642,3407 Montrose Blvd|Hawthorne Square,houston,TX,770064342,Central Standard Time,GMT-06:00,America/Chicago,05:00,21:00,05:00,21:00,05:00,21:00,05:00,21:00,05:00,21:00,05:30,21:00,05:30,21:00
7860,9672-95806,US,CO,30.004163,-95.252018,1501 FM 1960 BPE,humble,TX,773383911,Central Standard Time,GMT-06:00,America/Chicago,05:00,20:00,05:00,20:00,05:00,20:00,05:00,20:00,05:00,20:00,05:00,20:00,06:00,20:00
7861,26362-101498,US,LS,29.753651,-95.40555,1938 W Gray St,houston,TX,77019,Central Standard Time,GMT-06:00,America/Chicago,06:00,20:00,06:00,20:00,06:00,20:00,06:00,20:00,06:00,20:00,06:00,20:00,06:00,20:00
7862,6320-4129,US,CO,29.753221,-95.410332,2050 W. Gray,houston,TX,770193602,Central Standard Time,GMT-06:00,America/Chicago,05:00,21:00,05:00,21:00,05:00,21:00,05:00,21:00,05:00,22:00,05:00,22:00,06:00,21:00
7863,48023-260946,US,CO,29.733991,-95.404803,1801 Richmond Ave.,houston,TX,770983509,Central Standard Time,GMT-06:00,America/Chicago,05:00,22:00,05:00,22:00,05:00,22:00,05:00,22:00,05:00,22:00,05:00,22:00,05:00,22:00
7864,70317-129167,US,LS,38.856239,-84.617032,635 Chestnut Drive,walton,KY,410947841,Eastern Standard Time,GMT-05:00,America/New_York,06:00,20:00,06:00,20:00,06:00,20:00,06:00,20:00,06:00,20:00,06:00,20:00,06:00,20:00
7865,63451-298080,US,CO,38.8596,-84.619661,208 Mary Grubbs Hwy,walton,KY,41094,Eastern Standard Time,GMT-05:00,America/New_York,05:30,21:00,05:30,21:00,05:30,19:00,05:30,21:00,05:30,21:00,05:30,21:00,05:30,21:00
7866,19635-188804,US,LS,38.928722,-84.547955,1700 Declaration Drive,independence,KY,41051,Eastern Standard Time,GMT-05:00,America/New_York,06:00,20:00,06:00,20:00,06:00,20:00,06:00,20:00,06:00,20:00,06:00,20:00,06:00,20:00
7867,51292-237275,US,LS,38.962275,-84.67655,9001 US-42,union,KY,41091,Eastern Standard Time,GMT-05:00,America/New_York,06:00,20:00,06:00,20:00,06:00,20:00,06:00,20:00,06:00,20:00,06:00,20:00,06:00,20:00
7868,57269-291272,US,CO,38.967499,-84.669595,8755 U.S. Highway 42,florence,KY,41042,Central Standard Time,GMT-05:00,America/New_York,05:30,21:00,05:30,21:00,05:30,19:00,05:30,21:00,05:30,21:00,05:30,21:00,05:30,21:00
7869,11509-104540,US,CO,38.991822,-84.652215,7905 Mall Road|200,florence,KY,410421409,Eastern Standard Time,GMT-05:00,America/New_York,05:00,21:00,07:00,21:00,07:00,19:00,07:00,21:00,07:00,21:00,07:00,21:00,07:00,21:00
7870,18836-184386,US,LS,38.99703,-84.656166,7685 Mall Rd.,florence,KY,41042,Eastern Standard Time,GMT-05:00,America/New_York,06:00,20:00,06:00,20:00,06:00,20:00,06:00,20:00,06:00,20:00,06:00,20:00,06:00,20:00
7871,27529-244986,US,LS,39.018676,-84.633827,1100 Hansel Drive,florence,KY,41042,Eastern Standard Time,GMT-05:00,America/New_York,08:00,21:00,08:00,21:00,08:00,21:00,08:00,21:00,08:00,21:00,08:00,21:00,08:00,21:00
7872,9562-96854,US,CO,39.024802,-84.579217,2871 Dixie Highway,crestview hills,KY,410172401,Eastern Standard Time,GMT-05:00,America/New_York,05:00,22:00,05:00,22:00,05:00,19:00,05:00,22:00,05:00,22:00,05:00,22:00,05:00,22:00
7873,73848-115914,US,LS,39.018246,-84.692128,1751 Patrick Drive,burlington,KY,410057345,Eastern Standard Time,GMT-05:00,America/New_York,06:00,20:00,06:00,20:00,06:00,20:00,06:00,20:00,06:00,20:00,06:00,20:00,06:00,20:00
7874,57671-291787,US,CO,38.681658,-84.598439,69 Broadway St,dry ridge,KY,410359790,Eastern Standard Time,GMT-05:00,America/New_York,05:30,21:00,05:30,21:00,05:30,19:00,05:30,21:00,05:30,21:00,05:30,21:00,05:30,21:00
7875,72365-5714,US,LS,39.050622,-84.656298,2939 Terminal Dr|Cincinnati / Northern KY Intl Airport,hebron,KY,41048,Eastern Standard Time,GMT-05:00,America/New_York,04:30,20:30,04:30,20:30,04:30,20:30,04:30,20:30,04:30,20:30,04:30,20:30,04:30,20:30
7876,7138-150405,US,LS,39.048736,-84.55263,2150 Dixie Hwy,fort mitchell,KY,410172971,Eastern Standard Time,GMT-05:00,America/New_York,06:00,20:00,06:00,20:00,06:00,20:00,06:00,20:00,06:00,20:00,06:00,20:00,06:00,20:00
7877,17518-181245,US,LS,39.053464,-84.655979,2939 Terminal Dr,hebron,KY,41048,Eastern Standard Time,GMT-05:00,America/New_York,04:30,20:00,04:30,20:00,04:30,20:00,04:30,20:00,04:30,20:00,04:30,20:00,04:30,20:00
7878,75652-92420,US,LS,39.055639,-84.656375,2939 Terminal Dr,hebron,KY,41048,Eastern Standard Time,GMT-05:00,America/New_York,04:30,12:30,04:30,12:30,04:30,12:30,04:30,12:30,04:30,12:30,04:30,12:30,04:30,12:30
7879,75308-100101,US,LS,39.033381,-84.466325,20 Kenton Drive,highland heights,KY,410761919,Eastern Standard Time,GMT-05:00,America/New_York,07:30,19:00,07:30,19:00,07:30,19:00,07:30,19:00,07:30,15:00,Closed,Closed,Closed,Closed
7880,73954-113248,US,LS,39.006203,-84.420216,375 Crossroads Blvd.,cold spring,KY,410762202,Eastern Standard Time,GMT-05:00,America/New_York,06:00,20:00,06:00,20:00,06:00,20:00,06:00,20:00,06:00,20:00,06:00,20:00,06:00,20:00
7881,70378-135769,US,LS,39.063954,-84.706786,3105 North Bend Rd,hebron,KY,410488523,Eastern Standard Time,GMT-05:00,America/New_York,06:00,20:00,06:00,20:00,06:00,20:00,06:00,20:00,06:00,20:00,06:00,20:00,06:00,20:00
7882,61756-295950,US,LS,39.096182,-84.612652,5080 Dehli Pike,cincinnati,OH,45238,Eastern Standard Time,GMT-05:00,America/New_York,06:00,19:30,06:00,19:30,06:00,19:30,06:00,19:30,06:00,19:30,06:00,19:30,06:00,19:30
7883,2447-19539,US,CO,39.080037,-84.466994,1405 Grand Avenue,newport,KY,410712571,Eastern Standard Time,GMT-05:00,America/New_York,05:00,22:00,05:00,22:00,05:00,20:00,05:00,22:00,05:00,22:00,05:30,22:00,05:30,22:00
7884,9076-143225,US,LS,39.088557,-84.477997,160 Pavilion Pkwy,newport,KY,410712884,Eastern Standard Time,GMT-05:00,America/New_York,08:00,21:00,08:00,21:00,08:00,21:00,08:00,21:00,08:00,21:00,08:00,21:00,08:00,21:00
7885,2208-536,US,CO,39.099995,-84.512838,401 Vine Street,cincinnati,OH,452022853,Eastern Standard Time,GMT-05:00,America/New_York,05:00,18:30,05:00,18:30,05:00,15:00,05:00,18:30,05:00,18:30,06:00,19:30,06:00,19:30
7886,3935-143244,US,LS,39.09036,-84.478321,130 Pavilion Pkwy,newport,KY,410712998,Eastern Standard Time,GMT-05:00,America/New_York,06:00,20:00,06:00,20:00,06:00,20:00,06:00,20:00,06:00,20:00,06:00,20:00,06:00,20:00
7887,2206-217945,US,CO,39.102652,-84.510893,580 Walnut Street,cincinnati,OH,45202,Eastern Standard Time,GMT-05:00,America/New_York,06:30,17:00,06:30,17:00,06:30,17:00,06:30,17:00,06:30,17:00,06:30,14:00,06:30,13:00
7888,59803-288402,US,LS,39.106695,-84.512527,100 E. Court Street,cincinnati,OH,45242,Eastern Standard Time,GMT-05:00,America/New_York,06:00,20:00,06:00,20:00,06:00,20:00,06:00,20:00,06:00,20:00,06:00,20:00,06:00,20:00
7889,18510-172906,US,LS,39.108372,-84.506016,1000 Broadway St,cincinnati,OH,45202,Eastern Standard Time,GMT-05:00,America/New_York,06:00,20:00,06:00,20:00,06:00,20:00,06:00,20:00,06:00,22:00,06:00,22:00,06:00,20:00
7890,50818-263765,US,LS,39.111528,-84.515553,1 West Corry St,cincinnati,OH,45219,Eastern Standard Time,GMT-05:00,America/New_York,06:00,20:00,06:00,20:00,06:00,20:00,06:00,20:00,06:00,20:00,06:00,20:00,06:00,20:00
7891,54204-286414,US,CO,39.131439,-84.609096,5560 Glenway Ave,cincinnati,OH,452383404,Eastern Standard Time,GMT-05:00,America/New_York,05:30,21:00,05:30,21:00,05:30,19:00,05:30,21:00,05:30,21:00,05:30,21:00,05:30,21:00
7892,2420-201504,US,CO,39.128034,-84.51701,234 Calhoun Street|5107|University Square,cincinnati,OH,45219,Eastern Standard Time,GMT-05:00,America/New_York,06:00,21:00,06:00,21:00,06:00,19:00,06:00,21:00,06:00,21:00,06:00,21:00,06:00,21:00
7893,12928-155285,US,LS,39.130589,-84.517834,"45 W Charlton|4215A Mary Emery Hall, 4th FL",cincinnati,OH,452191926,Eastern Standard Time,GMT-05:00,America/New_York,07:30,19:00,07:30,19:00,07:30,19:00,07:30,19:00,07:30,19:00,10:00,17:00,10:00,17:00
7894,73876-103619,US,LS,39.142864,-84.622728,6165 Glenway Avenue,cincinnati,OH,452116338,Eastern Standard Time,GMT-05:00,America/New_York,06:00,19:00,06:00,19:00,06:00,19:00,06:00,19:00,06:00,19:00,06:00,19:00,06:00,19:00
7895,75221-94079,US,LS,39.133596,-84.514377,2906 Woodside Dr,cincinnati,OH,45221,Eastern Standard Time,GMT-05:00,America/New_York,07:30,19:00,07:30,19:00,07:30,19:00,07:30,19:00,07:30,19:00,Closed,Closed,Closed,Closed
7896,27560-247348,US,LS,39.133931,-84.515673,2911 Woodside Dr,cincinnati,OH,45221,Eastern Standard Time,GMT-05:00,America/New_York,09:00,17:00,09:00,17:00,09:00,17:00,09:00,17:00,09:00,17:00,Closed,Closed,Closed,Closed
7897,70353-138224,US,LS,39.14496,-84.619936,6100 Glenway Ave,cincinnati,OH,452116319,Eastern Standard Time,GMT-05:00,America/New_York,08:00,21:00,08:00,21:00,08:00,21:00,08:00,21:00,08:00,21:00,08:00,21:00,08:00,21:00
7898,75512-41999,US,LS,39.137433,-84.503942,234 Goodman Drive|University Cincinnati Med Ctr,cincinnati,OH,452192105,Eastern Standard Time,GMT-05:00,America/New_York,06:00,16:00,06:00,16:00,06:00,16:00,06:00,16:00,06:00,16:00,Closed,Closed,Closed,Closed
7899,2433-17534,US,CO,39.11571,-84.436473,3568 Columbia Parkway,cincinnati,OH,452262138,Eastern Standard Time,GMT-05:00,America/New_York,05:30,19:00,05:30,19:00,05:30,17:30,05:30,19:00,05:30,19:00,05:30,19:00,05:30,19:00
7900,47095-256706,US,CO,39.073746,-84.350061,7412 Beechmont Ave,cincinnati,OH,45230,Eastern Standard Time,GMT-05:00,America/New_York,05:30,20:00,05:30,20:00,05:30,20:00,05:30,20:00,05:30,20:00,06:00,20:00,06:00,20:00
7901,72940-93399,US,LS,39.07422,-84.348111,7580 Beechmont Avenue,cincinnati,OH,452554221,Eastern Standard Time,GMT-05:00,America/New_York,06:00,20:00,06:00,20:00,06:00,20:00,06:00,20:00,06:00,20:00,06:00,20:00,06:00,20:00
7902,24141-202466,US,LS,39.147992,-84.466297,3763 Montgomery Rd,norwood,OH,45212,Eastern Standard Time,GMT-05:00,America/New_York,07:30,20:00,07:30,20:00,07:30,20:00,07:30,20:00,07:30,19:00,07:30,19:00,07:30,17:00
7903,19787-189469,US,LS,39.164365,-84.514843,4777 Kenard Avenue,cincinnati,OH,45232,Eastern Standard Time,GMT-05:00,America/New_York,06:00,20:00,06:00,20:00,06:00,20:00,06:00,20:00,06:00,20:00,06:00,20:00,06:00,20:00
7904,11696-105034,US,CO,39.071527,-84.311497,449 SR 125,cincinnati,OH,452553370,Eastern Standard Time,GMT-05:00,America/New_York,05:00,21:00,05:00,21:00,05:00,21:00,05:00,21:00,05:00,21:00,05:30,21:00,05:30,21:00
7905,76947-130405,US,LS,39.073463,-84.313443,8680 Beechmont Ave,cincinnati,OH,452554710,Eastern Standard Time,GMT-05:00,America/New_York,08:00,21:00,08:00,21:00,08:00,21:00,08:00,21:00,08:00,21:00,08:00,21:00,08:00,21:00
7906,2203-1500,US,CO,39.147498,-84.443065,2692 Madison Rd|Rockwood Pavillion Shopping Center,cincinnati,OH,452081321,Eastern Standard Time,GMT-05:00,America/New_York,05:00,22:00,05:00,22:00,05:00,20:00,05:00,22:00,05:00,22:00,05:30,22:00,05:30,22:00
7907,59440-293327,US,LS,39.177265,-84.644435,5910 Harrison Ave,cincinnati,OH,45248,Eastern Standard Time,GMT-05:00,America/New_York,06:00,21:00,06:00,21:00,06:00,21:00,06:00,21:00,06:00,21:00,06:00,21:00,06:00,21:00
7908,72965-95885,US,LS,39.145086,-84.430015,3760 Paxton Ave,cincinnati,OH,452092306,Eastern Standard Time,GMT-05:00,America/New_York,06:00,20:00,06:00,20:00,06:00,20:00,06:00,20:00,06:00,20:00,06:00,20:00,06:00,20:00
7909,298-1499,US,CO,39.145815,-84.428972,3786 Paxton Rd|Space #1,cincinnati,OH,452092306,Eastern Standard Time,GMT-05:00,America/New_York,06:00,19:30,06:00,19:30,06:00,17:30,06:00,19:30,06:00,19:30,06:00,19:30,06:00,19:30
7910,72990-97122,US,LS,39.189841,-84.598849,3491 North Bend Rd|513-598-7500,cincinnati,OH,452397624,Eastern Standard Time,GMT-05:00,America/New_York,06:00,20:00,06:00,20:00,06:00,20:00,06:00,20:00,06:00,20:00,06:00,20:00,06:00,20:00
7911,49354-263766,US,LS,39.171877,-84.759406,4001 SR 128,cleves,OH,45002,Eastern Standard Time,GMT-05:00,America/New_York,06:00,20:00,06:00,20:00,06:00,20:00,06:00,20:00,06:00,20:00,06:00,20:00,06:00,20:00
7912,23159-225987,US,CO,39.191017,-84.656851,6440 Harrison Avenue,cincinnati,OH,452477962,Eastern Standard Time,GMT-05:00,America/New_York,05:30,21:00,05:30,21:00,05:30,21:00,05:30,21:00,05:30,22:00,06:00,22:00,05:30,21:00
7913,57813-291926,US,CO,39.157821,-84.424056,3365 Vandercar Way,cincinnati,OH,452095111,Eastern Standard Time,GMT-05:00,America/New_York,05:30,21:00,05:30,21:00,05:30,19:00,05:30,21:00,05:30,21:00,05:30,21:00,05:30,21:00
7914,13305-106506,US,CO,33.923598,-116.949263,1610 E 2nd Street  Market Place,beaumont,CA,922233166,Pacific Standard Time,GMT-08:00,America/Los_Angeles,04:30,22:00,04:30,22:00,04:30,22:00,04:30,22:00,04:30,22:00,04:30,22:00,04:30,22:00
7915,73477-53380,US,LS,33.924898,-116.945077,300 S Highland Springs Ave #7,banning,CA,922206501,Pacific Standard Time,GMT-08:00,America/Los_Angeles,06:00,20:00,06:00,20:00,06:00,20:00,06:00,20:00,06:00,20:00,06:00,20:00,06:00,20:00
7916,9387-96406,US,CO,33.94775,-116.975956,1420 Beaumont Avenue|#A,beaumont,CA,922234755,Pacific Standard Time,GMT-08:00,America/Los_Angeles,05:00,20:00,Closed,Closed,Closed,Closed,06:00,20:00,05:00,20:00,06:00,20:00,06:00,20:00
7917,5831-24707,US,CO,33.925353,-116.901837,2270 West Ramsey Street,banning,CA,922203708,Pacific Standard Time,GMT-08:00,America/Los_Angeles,04:30,21:00,04:30,21:00,04:30,21:00,04:30,21:00,04:30,21:00,04:30,21:00,04:30,21:00
7918,59668-293484,US,CO,33.965998,-117.036455,"1032 Cherry Valley Blvd, Suite 300|300",calimesa,CA,92320,Pacific Standard Time,GMT-08:00,America/Los_Angeles,04:30,21:30,04:30,21:30,04:30,21:30,04:30,21:30,04:30,21:30,04:30,21:30,05:00,21:00
7919,23692-214907,US,CO,33.928821,-116.815659,48400 Seminole Drive|K102,cabazon,CA,922302125,Pacific Standard Time,GMT-08:00,America/Los_Angeles,09:30,19:00,09:30,19:00,09:30,19:00,09:30,19:00,09:00,20:00,09:00,20:00,09:00,18:00
7920,27830-248525,US,CO,33.995655,-117.05864,1166 Calimesa Blvd,calimesa,CA,923201509,Pacific Standard Time,GMT-08:00,America/Los_Angeles,04:30,22:00,04:30,22:00,04:30,22:00,04:30,22:00,04:30,22:00,04:30,22:00,05:30,22:00
7921,27292-245705,US,CO,33.921845,-116.804983,49076 Seminole Drive,cabazon,CA,922302201,Pacific Standard Time,GMT-08:00,America/Los_Angeles,04:30,22:00,04:30,22:00,04:30,22:00,04:30,22:00,04:30,22:00,04:30,22:00,04:30,22:00
7922,10492-100423,US,CO,33.802929,-116.971709,1211 N. State Street|A,san jacinto,CA,925836309,Pacific Standard Time,GMT-08:00,America/Los_Angeles,04:30,23:00,04:30,23:00,04:30,23:00,04:30,23:00,04:30,23:00,04:30,23:00,04:30,23:00
7923,6438-245084,US,CO,34.034256,-117.060833,34050 Yucaipa Blvd.|200,yucaipa,CA,923992012,Pacific Standard Time,GMT-08:00,America/Los_Angeles,04:30,22:30,04:30,22:30,04:30,22:30,04:30,22:30,04:30,23:00,04:30,23:00,05:30,22:30
7924,79654-108478,US,LS,34.035183,-117.070204,33644 YUCAIPA BLVD,yucaipa,CA,923992071,Pacific Standard Time,GMT-08:00,America/Los_Angeles,06:00,20:00,06:00,20:00,06:00,20:00,06:00,20:00,06:00,20:00,06:00,20:00,06:00,20:00
7925,51967-277964,US,CO,33.771975,-116.958246,1555 S. San Jacinto Ave.,san jacinto,CA,925835107,Pacific Standard Time,GMT-08:00,America/Los_Angeles,04:30,23:00,04:30,23:00,04:30,23:00,04:30,23:00,04:30,23:00,04:30,23:00,04:30,23:00
7926,10893-102951,US,CO,33.773713,-117.006275,2281 W. Esplanade Ave.|Suite A,san jacinto,CA,925824708,Pacific Standard Time,GMT-08:00,America/Los_Angeles,04:30,22:00,04:30,22:00,04:30,22:00,04:30,22:00,04:30,22:00,04:30,22:00,04:30,22:00
7927,9974-98559,US,CO,34.028415,-117.119274,31364 Yucaipa Blvd.|A,yucaipa,CA,923991570,Pacific Standard Time,GMT-08:00,America/Los_Angeles,04:30,21:00,04:30,21:00,04:30,21:00,04:30,21:00,04:30,21:00,04:30,21:00,05:00,20:30
7928,64622-297443,US,CO,33.747485,-116.931214,41831 Florida Avenue,hemet,CA,92544,Pacific Standard Time,GMT-08:00,America/Los_Angeles,04:30,22:00,04:30,22:00,04:30,22:00,04:30,22:00,04:30,22:00,04:30,22:00,04:30,22:00
7929,10010-97229,US,CO,33.747259,-116.980115,889 W. Florida Ave.,hemet,CA,925434070,Pacific Standard Time,GMT-08:00,America/Los_Angeles,05:30,21:00,05:30,21:00,05:30,21:00,05:30,21:00,05:30,21:00,05:30,21:00,05:30,21:00
7930,11027-103346,US,CO,33.911108,-117.174592,14455 Moreno Beach Dr.,moreno valley,CA,92555,Pacific Standard Time,GMT-08:00,America/Los_Angeles,04:30,22:00,04:30,22:00,04:30,22:00,04:30,22:00,04:30,22:00,04:30,22:00,05:00,22:00
7931,9899-97042,US,CO,33.935637,-117.178984,12751 Moreno Beach Drive,moreno valley,CA,925554411,Pacific Standard Time,GMT-08:00,America/Los_Angeles,04:30,00:00,04:30,00:00,04:30,00:00,04:30,00:00,04:30,01:00,04:30,01:00,05:00,00:00
7932,8752-93755,US,CO,33.729605,-116.972096,150 W. Stetson Avenue,hemet,CA,925437045,Pacific Standard Time,GMT-08:00,America/Los_Angeles,04:30,22:30,04:30,22:30,04:30,22:30,04:30,22:30,04:30,22:30,04:30,22:30,04:30,22:30
7933,76767-107985,US,LS,33.937647,-117.189053,27100 Eucalyptus,moreno valley,CA,925554522,Pacific Standard Time,GMT-08:00,America/Los_Angeles,07:00,21:00,07:00,21:00,07:00,21:00,07:00,21:00,07:00,21:00,07:00,21:00,07:00,21:00
7934,50182-273385,US,CO,34.041896,-117.157296,1055 Parkford Dr.,redlands,CA,923746303,Pacific Standard Time,GMT-08:00,America/Los_Angeles,05:00,20:30,05:00,20:30,05:00,20:30,05:00,20:30,05:00,20:30,05:00,20:30,05:00,20:30
7935,22308-215004,US,CO,34.070385,-117.140594,1755 E. Lugonia Avenue,redlands,CA,923742753,Pacific Standard Time,GMT-08:00,America/Los_Angeles,04:30,22:30,04:30,22:30,04:30,22:30,04:30,22:30,04:30,22:30,05:30,21:30,05:30,21:00
7936,17824-180665,US,CO,33.890946,-117.207951,25960 Iris Avenue|Suite 1C|Lakeside Plaza,moreno valley,CA,925511659,Pacific Standard Time,GMT-08:00,America/Los_Angeles,04:30,21:00,04:30,21:00,04:30,21:00,04:30,21:00,04:30,21:00,04:30,21:00,04:30,21:00
7937,73620-87553,US,LS,34.048971,-117.171479,450 W Cypress Ave,redlands,CA,923736115,Pacific Standard Time,GMT-08:00,America/Los_Angeles,06:00,20:00,06:00,20:00,06:00,20:00,06:00,20:00,06:00,20:00,06:00,20:00,06:00,20:00
7938,23319-226064,US,CO,34.054931,-117.174935,625 East Redlands Blvd.,redlands,CA,923735230,Pacific Standard Time,GMT-08:00,America/Los_Angeles,04:30,22:30,04:30,22:30,04:30,22:30,04:30,22:30,04:30,23:30,05:00,23:30,05:00,22:30
7939,74981-103364,US,LS,34.060161,-117.181456,522 NORTH ORANGE,redlands,CA,923743208,Pacific Standard Time,GMT-08:00,America/Los_Angeles,06:00,20:00,06:00,20:00,06:00,20:00,06:00,20:00,06:00,20:00,06:00,20:00,06:00,20:00
7940,5693-293812,US,CO,34.059413,-117.186112,275 W Stuart Avenue,redlands,CA,92373,Pacific Standard Time,GMT-08:00,America/Los_Angeles,04:30,22:30,04:30,22:30,04:30,22:30,04:30,22:30,04:30,22:30,04:30,22:30,05:00,21:00
7941,8907-94885,US,CO,34.071419,-117.204276,27512 W.  Lugonia Avenue|A,redlands,CA,923742060,Pacific Standard Time,GMT-08:00,America/Los_Angeles,06:00,22:00,06:00,22:00,06:00,22:00,06:00,22:00,06:00,22:00,06:00,22:00,06:00,22:00
7942,10004-98481,US,CO,34.069266,-117.209164,1265 Alabama Street|Orange Tree Marketplace,redlands,CA,923742813,Pacific Standard Time,GMT-08:00,America/Los_Angeles,04:30,23:00,04:30,23:00,04:30,23:00,04:30,23:00,04:30,23:30,04:30,23:30,04:30,23:30
7943,76159-93363,US,LS,34.072403,-117.20757,27320 Lugonia Ave,redlands,CA,923742041,Pacific Standard Time,GMT-08:00,America/Los_Angeles,08:00,21:00,08:00,21:00,08:00,21:00,08:00,21:00,08:00,21:00,08:00,21:00,08:00,21:00
7944,6768-77841,US,CO,34.120645,-117.202595,27615 Baseline Street|El Rancho Center,highland,CA,923466408,Pacific Standard Time,GMT-08:00,America/Los_Angeles,04:30,23:00,04:30,23:00,04:30,23:00,04:30,23:00,04:30,23:00,04:30,23:00,04:30,23:00
7945,25955-243125,US,CO,34.135989,-117.197273,4140 E Highland Ave,highland,CA,923462771,Pacific Standard Time,GMT-08:00,America/Los_Angeles,04:30,21:30,04:30,21:30,04:30,21:30,04:30,21:30,04:30,22:30,04:30,22:30,04:30,22:30
7946,11664-103729,US,CO,47.096082,-122.354656,5602 176th St. East|Building G,frederickson,WA,983759307,Pacific Standard Time,GMT-08:00,America/Los_Angeles,04:30,20:00,04:30,18:00,04:30,20:00,04:30,20:00,04:30,20:00,05:00,20:00,05:00,20:00
7947,79757-104110,US,LS,47.095958,-122.3547,5616 176th E,puyallup,WA,983759309,Pacific Standard Time,GMT-08:00,America/Los_Angeles,06:00,19:00,06:00,19:00,06:00,19:00,06:00,19:00,06:00,19:00,06:00,19:00,06:00,19:00
7948,79305-93992,US,LS,47.098695,-122.296874,17404 Meridian E,puyallup,WA,983756234,Pacific Standard Time,GMT-08:00,America/Los_Angeles,06:00,19:00,06:00,19:00,06:00,19:00,06:00,19:00,06:00,19:00,06:00,19:00,06:00,19:00
7949,76993-99506,US,LS,47.113183,-122.291736,10302 156th St E,puyallup,WA,983749321,Pacific Standard Time,GMT-08:00,America/Los_Angeles,07:00,21:00,07:00,21:00,07:00,21:00,07:00,21:00,07:00,21:00,07:00,21:00,07:00,21:00
7950,3239-244913,US,CO,47.11873,-122.292434,15125 Meridian St. E,puyallup,WA,983756620,Pacific Standard Time,GMT-08:00,America/Los_Angeles,04:30,19:00,04:30,19:00,04:30,19:00,04:30,19:00,04:30,19:00,05:00,19:00,05:00,19:00
7951,21520-160804,US,CO,47.071341,-122.417879,20401 Mountain Hwy E,spanaway,WA,983878176,Pacific Standard Time,GMT-08:00,America/Los_Angeles,04:30,19:30,Closed,Closed,Closed,Closed,04:30,19:30,04:30,19:30,05:30,19:30,05:30,19:30
7952,9856-98167,US,CO,47.150532,-122.356676,11601 Canyon Rd East|100,puyallup,WA,983734365,Pacific Standard Time,GMT-08:00,America/Los_Angeles,04:00,19:30,04:00,19:30,04:00,19:30,04:00,19:30,04:00,19:30,04:30,19:30,05:00,19:00
7953,47603-258968,US,LS,47.112751,-122.432029,15805 PACIFIC AVE S,tacoma,WA,98444,Pacific Standard Time,GMT-08:00,America/Los_Angeles,06:00,19:00,06:00,19:00,06:00,19:00,06:00,19:00,06:00,19:00,06:00,19:00,06:00,19:00
7954,49204-260728,US,CO,47.106209,-122.435385,210 166th St S,spanaway,WA,983878602,Pacific Standard Time,GMT-08:00,America/Los_Angeles,04:30,18:30,04:30,18:30,04:30,18:30,04:30,18:30,04:30,18:30,05:00,18:30,05:00,18:30
7955,79564-104973,US,LS,47.152135,-122.355596,11501 CANYON RD E,puyallup,WA,983734359,Pacific Standard Time,GMT-08:00,America/Los_Angeles,06:00,19:00,06:00,19:00,06:00,19:00,06:00,19:00,06:00,19:00,06:00,19:00,06:00,19:00
7956,74389-82471,US,LS,47.13542,-122.294681,13308 Meridian E,puyallup,WA,983735612,Pacific Standard Time,GMT-08:00,America/Los_Angeles,05:30,19:00,05:30,19:00,05:30,19:00,05:30,19:00,05:30,19:00,05:30,19:00,05:30,19:00
7957,74410-82470,US,LS,47.054042,-122.296852,10105 224th St E,graham,WA,983389190,Pacific Standard Time,GMT-08:00,America/Los_Angeles,06:00,19:00,06:00,19:00,06:00,19:00,06:00,19:00,06:00,19:00,06:00,19:00,06:00,19:00
7958,13281-105890,US,CO,47.136693,-122.292381,10219 132nd Street East|Suite #404,puyallup,WA,983744604,Pacific Standard Time,GMT-08:00,America/Los_Angeles,04:00,19:30,04:00,19:30,04:00,19:30,04:00,19:30,04:00,19:30,05:30,19:30,05:30,19:30
7959,19666-171346,US,CO,47.054375,-122.293937,22205 Meridian Ave E,graham,WA,983389781,Pacific Standard Time,GMT-08:00,America/Los_Angeles,04:30,20:00,04:30,20:00,04:30,20:00,04:30,20:00,04:30,20:00,04:30,20:00,04:30,20:00
7960,73112-21389,US,LS,47.155901,-122.358883,11012 Canyon Road E.,puyallup,WA,983734200,Pacific Standard Time,GMT-08:00,America/Los_Angeles,05:30,19:00,05:30,19:00,05:30,19:00,05:30,19:00,05:30,19:00,05:30,19:00,05:30,19:00
7961,353-253526,US,CO,47.149896,-122.292528,4417 S Meridian St,puyallup,WA,983733661,Pacific Standard Time,GMT-08:00,America/Los_Angeles,05:00,19:00,05:00,19:00,05:00,19:00,05:00,19:00,05:00,19:00,05:00,19:00,06:00,18:00
7962,8137-95952,US,CO,47.140609,-122.434171,12821 Pacific Ave S.,tacoma,WA,984445070,Pacific Standard Time,GMT-08:00,America/Los_Angeles,03:00,20:00,03:00,20:00,03:00,20:00,03:00,20:00,03:00,20:00,04:30,20:00,05:00,20:00
7963,3288-1874,US,CO,47.15642,-122.292479,3705 South Meridian|Suite A,puyallup,WA,983733709,Pacific Standard Time,GMT-08:00,America/Los_Angeles,04:30,19:00,04:30,19:00,04:30,19:00,04:30,19:00,04:30,19:00,04:30,19:00,04:30,19:00
7964,23887-233394,US,LS,47.161423,-122.293079,3310 S Meridian,puyallup,WA,98373,Pacific Standard Time,GMT-08:00,America/Los_Angeles,07:00,21:00,07:00,21:00,07:00,21:00,07:00,21:00,07:00,21:00,07:00,21:00,07:00,20:00
7965,3850-144065,US,LS,47.177544,-122.289246,401 15th Ave SE,puyallup,WA,983723715,Pacific Standard Time,GMT-08:00,America/Los_Angeles,05:30,21:00,05:30,21:00,05:30,21:00,05:30,21:00,05:30,21:00,06:30,17:00,06:30,17:00
7966,26737-244728,US,CO,47.184205,-122.293193,909 S. Meridian,puyallup,WA,983716908,Pacific Standard Time,GMT-08:00,America/Los_Angeles,04:30,18:00,04:30,18:00,04:30,18:00,04:30,18:00,04:30,18:00,05:00,18:00,05:00,17:00
7967,74692-94729,US,LS,47.098899,-122.209286,215 Whitesell St NW,orting,WA,983609329,Pacific Standard Time,GMT-08:00,America/Los_Angeles,05:30,19:00,05:30,19:00,05:30,19:00,05:30,19:00,05:30,19:00,05:30,19:00,05:30,19:00
7968,64952-298811,US,LS,47.185183,-122.258895,2614 E Pioneer Way,puyallup,WA,98372,Pacific Standard Time,GMT-08:00,America/Los_Angeles,05:00,19:00,05:00,19:00,05:00,19:00,05:00,19:00,05:00,19:00,05:00,19:00,05:00,19:00
7969,10767-94482,US,CO,47.199984,-122.297101,303 River Rd,puyallup,WA,983714168,Pacific Standard Time,GMT-08:00,America/Los_Angeles,04:30,19:00,04:30,19:00,04:30,19:00,04:30,19:00,04:30,19:00,04:30,19:00,05:30,19:00
7970,58167-270327,US,CO,47.185383,-122.25731,732 Shaw Road|Suite D,puyallup,WA,98372,Pacific Standard Time,GMT-08:00,America/Los_Angeles,04:00,19:00,04:00,19:00,04:00,19:00,04:00,19:00,04:00,19:00,05:00,19:00,05:00,19:00
7971,72774-57619,US,LS,47.200731,-122.296165,1100 North Meridian,puyallup,WA,983714403,Pacific Standard Time,GMT-08:00,America/Los_Angeles,05:00,19:00,05:00,19:00,05:00,19:00,05:00,19:00,05:00,19:00,05:00,19:00,05:00,19:00
7972,9410-96548,US,CO,47.202816,-122.229245,15005 Main Street East|101,sumner,WA,983903644,Pacific Standard Time,GMT-08:00,America/Los_Angeles,04:30,18:00,04:30,18:00,04:30,18:00,04:30,18:00,04:30,18:00,06:00,18:00,06:00,18:00
7973,72785-87983,US,LS,47.204082,-122.228016,1201 E Valley Ave,sumner,WA,983903225,Pacific Standard Time,GMT-08:00,America/Los_Angeles,06:00,19:00,06:00,19:00,06:00,19:00,06:00,19:00,06:00,19:00,06:00,19:00,06:00,19:00
7974,3257-1845,US,CO,47.169531,-122.170009,19461 Highway 410 East|A,bonney lake,WA,98391,Pacific Standard Time,GMT-08:00,America/Los_Angeles,04:00,20:00,04:00,20:00,04:00,20:00,04:00,20:00,04:00,20:00,05:00,20:00,05:00,20:00
7975,76296-95449,US,LS,47.172191,-122.171782,9400 192nd Ave E,bonney lake,WA,983918564,Pacific Standard Time,GMT-08:00,America/Los_Angeles,07:00,21:00,07:00,21:00,07:00,21:00,07:00,21:00,07:00,21:00,07:00,21:00,07:00,21:00
7976,72652-46900,US,LS,39.936271,-86.232661,10401 N Michigan Rd,carmel,IN,460327939,US Eastern Standard Time,GMT-05:00,America/Indiana/Indianapolis,07:00,21:00,07:00,21:00,07:00,21:00,07:00,21:00,07:00,21:00,07:00,21:00,07:00,21:00
7977,8690-94493,US,CO,39.937614,-86.235888,10460 N Michigan Rd|100,carmel,IN,460327952,US Eastern Standard Time,GMT-05:00,America/Indiana/Indianapolis,07:00,16:00,07:00,16:00,07:00,16:00,07:00,16:00,07:00,16:00,07:00,17:00,07:00,17:00
7978,55731-288635,US,LS,39.94329,-86.236433,10679 N Michigan,zionsville,IN,46077,US Eastern Standard Time,GMT-05:00,America/Indiana/Indianapolis,07:00,21:00,07:00,21:00,07:00,21:00,07:00,21:00,07:00,21:00,07:00,21:00,07:00,21:00
7979,10029-96532,US,CO,39.911233,-86.261898,5710 W 86th Street|Traders Point II,indianapolis,IN,462781338,US Eastern Standard Time,GMT-05:00,America/Indiana/Indianapolis,05:00,20:30,05:00,20:30,05:00,19:00,05:00,20:30,05:00,21:30,06:00,21:30,05:30,20:30
7980,13345-106327,US,CO,39.950668,-86.275628,1140 W Oak Street (SR-334),zionsville,IN,460771259,US Eastern Standard Time,GMT-05:00,America/Indiana/Indianapolis,05:30,20:00,05:30,20:00,05:30,19:00,05:30,20:00,05:30,20:00,06:00,20:00,06:00,20:00
7981,11506-263833,US,CO,40.020818,-86.16393,16072 Spring Mill Station Dr,westfield,IN,46074,US Eastern Standard Time,GMT-05:00,America/Indiana/Indianapolis,05:30,20:00,05:30,20:00,05:30,18:00,05:30,20:00,05:30,20:00,05:30,20:00,05:30,20:00
